id	region	lon	lat	topType	topTypeAlt	translitTitle	arTitle	translitTitleOther	arTitleOther	searchNames	arBW
WASHQA_003W421N_R_ANDA	Andalus	-0.35371	42.16109	regions	district	Wašqaŧ	وشقة	Wašqaŧ	وشقة	Washqa	Washqa
WASHQA_003W421N_S_ANDA	Andalus	-0.35371	42.16109	towns	cite?	Wašqaŧ	وشقة	Wašqaŧ	وشقة	Washqa	Washqa
BALANSIYYA_004W394N_R_ANDA	Andalus	-0.41486	39.43516	regions	district	Balansiyyaŧ	بلنسية	Balansiyyaŧ	بلنسية	Balansiyya	Balansiyya
BALANSIYYA_004W394N_S_ANDA	Andalus	-0.41486	39.43516	towns	cite	Balansiyyaŧ	بلنسية	Balansiyyaŧ	بلنسية	Balansiyya	Balansiyya
SHAQR_004W391N_S_ANDA	Andalus	-0.43734	39.16483	villages	localite	al-Šaqr	ﭐلشقر	al-Šaqr	ﭐلشقر	al-Shaqr	al-Shaqr
QANT_004W383N_S_ANDA	Andalus	-0.47061	38.34618	towns	cite	Qānt	قانت	Qānt	قانت	Qant	Qant
SHATIBA_005W389N_S_ANDA	Andalus	-0.52276	38.96551	towns	cite	Šātibaŧ	شاتبة	Šātibaŧ	شاتبة	Shatiba	Shatiba
SARAQUSA_009W416N_R_ANDA	Andalus	-0.92920	41.63368	regions	district	Saraqūsaŧ	سرقوسة	Saraqūsaŧ, Saraqūsṭaŧ	سرقوسة، سرقوسطة	Saraqusa, Saraqusta	Saraqusa, Saraqusta
SARAQUSA_009W416N_S_ANDA	Andalus	-0.92920	41.63368	towns	cite	Saraqūsaŧ	سرقوسة	Saraqūsaŧ, Saraqūsṭaŧ	سرقوسة، سرقوسطة	Saraqusa, Saraqusta	Saraqusa, Saraqusta
QARTAJANNA_009W376N_S_ANDA	Andalus	-0.98315	37.60050	villages	localite	Qarṭāǧannaŧ	قرطاجنة	Qarṭāǧannaŧ	قرطاجنة	Qartajanna	Qartajanna
NAHRABRUH_009W417N_W_ANDA	Andalus	-0.99933	41.78270	waters	riviere	Nahr Abruh	نهر أبره	Nahr Abruh	نهر أبره	Nahr Abruh	Nahr Abruh
MURSIYA_011W379N_S_ANDA	Andalus	-1.11443	37.99945	towns	cite	Mursiyaŧ	مرسية	Mursiyaŧ	مرسية	Mursiya	Mursiya
TUDMIR_013W379N_R_ANDA	Andalus	-1.34462	37.95834	regions	region	Tudmīr	تدمير	Tudmīr	تدمير	Tudmir	Tudmir
TUTILA_016W420N_R_ANDA	Andalus	-1.62697	42.04634	regions	district	Tuṭīlaŧ	تطيلة	Tuṭīlaŧ	تطيلة	Tutila	Tutila
TUTILA_016W420N_S_ANDA	Andalus	-1.62697	42.04634	towns	cite	Tuṭīlaŧ	تطيلة	Tuṭīlaŧ	تطيلة	Tutila	Tutila
LURQA_017W376N_S_ANDA	Andalus	-1.73128	37.65320	towns	cite	Lurqaŧ	لرقة	Lurqaŧ	لرقة	Lurqa	Lurqa
MADINASALIM_024W411N_S_ANDA	Andalus	-2.41736	41.13714	towns	cite	Madīnaŧ Sālim	مدينة سالم	Madīnaŧ Sālim	مدينة سالم	Madina Salim	Madina Salim
BAJJANA_024W369N_R_ANDA	Andalus	-2.41826	36.95657	regions	district	Baǧǧānaŧ	بجانة	Baǧǧānaŧ	بجانة	Bajjana	Bajjana
BAJJANA_024W369N_S_ANDA	Andalus	-2.41826	36.95657	towns	cite	Baǧǧānaŧ	بجانة	Baǧǧānaŧ	بجانة	Bajjana	Bajjana
MARIYYA_025W368N_S_ANDA	Andalus	-2.50099	36.86202	towns	cite	al-Mariyyaŧ	ﭐلمرية	al-Mariyyaŧ	ﭐلمرية	al-Mariyya	al-Mariyya
WADIHIJARA_031W406N_R_ANDA	Andalus	-3.15111	40.64910	regions	district	Wādī al-Ḥijāraŧ	وادي ﭐلحجارة	Wādī al-Ḥijāraŧ	وادي ﭐلحجارة	Wadi al-Hijara	Wadi al-Hijara
WADIHIJARA_031W406N_S_ANDA	Andalus	-3.15111	40.64910	towns	cite?	Wādī al-Ḥijāraŧ	وادي ﭐلحجارة	Wādī al-Ḥijāraŧ	وادي ﭐلحجارة	Wadi al-Hijara	Wadi al-Hijara
WADIYASH_031W373N_S_ANDA	Andalus	-3.16459	37.33966	towns	cite	Wādiyāš	وادياش	Wādiyāš	وادياش	Wadiyash	Wadiyash
SHAWDHAR_033W378N_S_ANDA	Andalus	-3.34803	37.87641	towns	cite	Šawḏar	شوذر	Šawḏar	شوذر	Shawdhar	Shawdhar
BAYYASA_034W379N_S_ANDA	Andalus	-3.45773	37.99980	towns	cite	Bayyāsaŧ	بياسة	Bayyāsaŧ	بياسة	Bayyasa	Bayyasa
GHARNATA_035W372N_S_ANDA	Andalus	-3.59980	37.20621	towns	cite	Ġarnāṭaŧ	غرناطة	Ġarnāṭaŧ	غرناطة	Gharnata	Gharnata
MANTISHA_036W398N_S_ANDA	Andalus	-3.62588	39.81332	towns	cite	Mantīšaŧ	منتيشة	Mantīšaŧ	منتيشة	Mantisha	Mantisha
LIBIRA_036W372N_R_ANDA	Andalus	-3.66814	37.22734	regions	district	Libīraŧ	لبيرة	Libīraŧ, Ilbīraŧ	لبيرة، إلبيرة	Libira, Ilbira	Libira, Ilbira
LIBIRA_036W372N_S_ANDA	Andalus	-3.66814	37.22734	towns	cite	Libīraŧ	لبيرة	Libīraŧ, Ilbīraŧ	لبيرة، إلبيرة	Libira, Ilbira	Libira, Ilbira
QALARABAH_037W388N_S_ANDA	Andalus	-3.78324	38.80312	towns	cite	Qalʿaŧ Rabāh	قلعة رباه	Qalʿaŧ Rabāh, Qalʿaŧ Ribāṭ	قلعة رباه، قلعة رباط	Qala Rabah, Qala Ribat	Qala Rabah, Qala Ribat
JAYYAN_038W377N_S_ANDA	Andalus	-3.80302	37.78977	towns	cite	Ǧayyān	جيان	Ǧayyān	جيان	Jayyan	Jayyan
QASTALLA_038W379N_S_ANDA	Andalus	-3.87676	37.98847	towns	cite	Qasṭallaŧ	قسطلة	Qasṭallaŧ	قسطلة	Qastalla	Qastalla
ABNASH_039W396N_S_ANDA	Andalus	-3.91003	39.63212	towns	cite	Abnaš	أبنش	Abnaš	أبنش	Abnash	Abnash
MALAQUN_039W391N_S_ANDA	Andalus	-3.91362	39.17390	towns	cite	Malaqūn	ملقون	Malaqūn	ملقون	Malaqun	Malaqun
MUGHAN_039W399N_S_ANDA	Andalus	-3.94240	39.97062	villages	village	Muġān	مغان	Muġān	مغان	Mughan	Mughan
MARTUSH_039W377N_S_ANDA	Andalus	-3.98826	37.74285	towns	cite	Mārtūš	مارتوش	Mārtūš	مارتوش	Martush	Martush
TULAYTILA_040W398N_R_ANDA	Andalus	-4.05210	39.88926	regions	district	Ṭulayṭilaŧ	طليطلة	Ṭulayṭilaŧ	طليطلة	Tulaytila	Tulaytila
TULAYTILA_040W398N_S_ANDA	Andalus	-4.05210	39.88926	towns	cite	Ṭulayṭilaŧ	طليطلة	Ṭulayṭilaŧ	طليطلة	Tulaytila	Tulaytila
ARJUNA_040W379N_S_ANDA	Andalus	-4.05300	37.92040	towns	cite	Arǧūnaŧ	أرجونة	Arǧūnaŧ	أرجونة	Arjuna	Arjuna
KARKUYA_040W388N_S_ANDA	Andalus	-4.06918	38.81784	towns	cite	Karkūyaŧ	كركوية	Karkūyaŧ	كركوية	Karkuya	Karkuya
BAYGHU_042W374N_S_ANDA	Andalus	-4.20406	37.45788	towns	cite	Bayġū	بيغو	Bayġū	بيغو	Bayghu	Bayghu
HISNBULKUNA_042W378N_S_ANDA	Andalus	-4.22025	37.87073	towns	cite	Ḥiṣn Bulkūnaŧ	حصن بلكونة	Ḥiṣn Bulkūnaŧ	حصن بلكونة	Hisn Bulkuna	Hisn Bulkuna
RAYYA_044W369N_R_ANDA	Andalus	-4.40368	36.98351	regions	district	Rayyaŧ	رية	Rayyaŧ, Rayyuh	رية، ريه	Rayya, Rayyuh	Rayya, Rayyuh
ARJIDUNA_044W370N_S_ANDA	Andalus	-4.42886	37.08687	towns	cite	Arǧidūnaŧ	أرجدونة	Arǧidūnaŧ	أرجدونة	Arjiduna	Arjiduna
MALIQA_044W367N_R_ANDA	Andalus	-4.43066	36.74791	regions	district	Māliqaŧ	مالقة	Māliqaŧ	مالقة	Maliqa	Maliqa
MALIQA_044W367N_S_ANDA	Andalus	-4.43066	36.74791	towns	cite	Māliqaŧ	مالقة	Māliqaŧ	مالقة	Maliqa	Maliqa
QURTUBA_047W379N_S_ANDA	Andalus	-4.78135	37.91898	metropoles	metropole	Qurṭūbaŧ	قرطوبة	Qurṭūbaŧ	قرطوبة	Qurtuba	Qurtuba
TALABIRA_048W399N_S_ANDA	Andalus	-4.82541	39.97062	towns	cite	Ṭalābiraŧ	طلابرة	Ṭalābiraŧ	طلابرة	Talabira	Talabira
ZAHRA_048W379N_S_ANDA	Andalus	-4.85328	37.96011	towns	cite	al-Zahrāʾ	ﭐلزهراء	al-Zahrāʾ	ﭐلزهراء	al-Zahra	al-Zahra
FAHSBALLUT_048W386N_R_ANDA	Andalus	-4.89554	38.63018	regions	district	Faḥṣ al-Ballūṭ	فحص ﭐلبلوط	Faḥṣ al-Ballūṭ	فحص ﭐلبلوط	Fahs al-Ballut	Fahs al-Ballut
GHAFIQ_050W386N_S_ANDA	Andalus	-5.01064	38.68214	towns	cite	Ġāfiq	غافق	Ġāfiq	غافق	Ghafiq	Ghafiq
ISTIJA_051W375N_S_ANDA	Andalus	-5.10865	37.53493	towns	cite	Istiǧaŧ	إستجة	Istiǧaŧ	إستجة	Istija	Istija
NAHRQURTUBA_051W377N_W_ANDA	Andalus	-5.11225	37.75423	waters	riviere	Nahr Qurṭūbaŧ	نهر قرطوبة	Nahr Qurṭūbaŧ	نهر قرطوبة	Nahr Qurtuba	Nahr Qurtuba
JAZIRAJABALTARIQ_053W361N_S_ANDA	Andalus	-5.33071	36.16752	towns	cite	Ǧazīraŧ Ǧabal Ṭāriq	جزيرة جبل طارق	Ǧazīraŧ Ǧabal Ṭāriq	جزيرة جبل طارق	Jazira Jabal Tariq	Jazira Jabal Tariq
JAZIRAKHADRA_054W361N_R_ANDA	Andalus	-5.43793	36.16359	regions	district	Ǧazīraŧ al-Ḫaḍrāʾ	جزيرة ﭐلخضراء	Ǧazīraŧ al-Ḫaḍrāʾ	جزيرة ﭐلخضراء	Jazira al-Khadra	Jazira al-Khadra
MAWRUR_054W371N_S_ANDA	Andalus	-5.48272	37.14029	towns	cite	Mawrūr	مورور	Mawrūr	مورور	Mawrur	Mawrur
LIYUN_055W426N_S_ANDA	Andalus	-5.56634	42.61850	towns	cite	Liyūn	ليون	Liyūn	ليون	Liyun	Liyun
FIRRISH_055W379N_R_ANDA	Andalus	-5.58702	37.95728	regions	region	Firrīš	فريش	Firrīš, Qarsīs	فريش، قرسيس	Firrish, Qarsis	Firrish, Qarsis
QARMUNA_056W374N_S_ANDA	Andalus	-5.64097	37.42933	towns	cite	Qarmūnaŧ	قرمونة	Qarmūnaŧ	قرمونة	Qarmuna	Qarmuna
SAMMURA_057W414N_S_ANDA	Andalus	-5.76776	41.44051	towns	cite	Sammūraŧ	سمورة	Sammūraŧ	سمورة	Sammura	Sammura
SHADHUNA_059W364N_R_ANDA	Andalus	-5.91433	36.46640	regions	district	Šaḏūnaŧ	شذونة	Šaḏūnaŧ, Šadūnaŧ	شذونة، شدونة	Shadhuna, Shaduna	Shadhuna, Shaduna
SHADHUNA_059W364N_S_ANDA	Andalus	-5.91433	36.46640	towns	cite	Šaḏūnaŧ	شذونة	Šaḏūnaŧ, Šadūnaŧ	شذونة، شدونة	Shadhuna, Shaduna	Shadhuna, Shaduna
TARAJILA_059W394N_S_ANDA	Andalus	-5.93861	39.48654	towns	cite	Taraǧīlaŧ	ترجيلة	Taraǧīlaŧ	ترجيلة	Tarajila	Tarajila
MADALLIN_059W389N_S_ANDA	Andalus	-5.94131	38.93229	towns	cite	Madallīn	مدلين	Madallīn	مدلين	Madallin	Madallin
ISHBILIYYA_059W374N_R_ANDA	Andalus	-5.96199	37.40790	regions	district	Išbīliyyaŧ	إشبيلية	Išbīliyyaŧ	إشبيلية	Ishbiliyya	Ishbiliyya
ISHBILIYYA_059W374N_S_ANDA	Andalus	-5.96199	37.40790	towns	cite	Išbīliyyaŧ	إشبيلية	Išbīliyyaŧ	إشبيلية	Ishbiliyya	Ishbiliyya
MAKHADABALAT_060W398N_S_ANDA	Andalus	-6.06629	39.80641	towns	cite	Maḫāḍaŧ al-Balāṭ	مخاضة ﭐلبلاط	Maḫāḍaŧ al-Balāṭ	مخاضة ﭐلبلاط	Makhada al-Balat	Makhada al-Balat
SHARISH_061W366N_S_ANDA	Andalus	-6.10856	36.69169	towns	cite	Šarīš	شريش	Šarīš	شريش	Sharish	Sharish
QADIS_061W365N_R_ANDA	Andalus	-6.18409	36.57191	regions	ile	Qādis	قادس	Qādis	قادس	Qadis	Qadis
MARIDA_063W388N_S_ANDA	Andalus	-6.32886	38.89521	towns	cite	Māridaŧ	ماردة	Māridaŧ	ماردة	Marida	Marida
QASARASH_063W394N_S_ANDA	Andalus	-6.39540	39.46953	towns	cite	Qaṣarāš	قصراش	Qaṣarāš	قصراش	Qasarash	Qasarash
QURIYA_065W399N_S_ANDA	Andalus	-6.55006	39.96270	towns	cite	Quriyaŧ	قرية	Quriyaŧ	قرية	Quriya	Quriya
LABLA_066W373N_S_ANDA	Andalus	-6.66965	37.38969	towns	cite	Lablaŧ	لبلة	Lablaŧ	لبلة	Labla	Labla
QANTARASIF_068W396N_S_ANDA	Andalus	-6.84140	39.69061	towns	cite	Qanṭaraŧ al-Sīf	قنطرة ﭐلسيف	Qanṭaraŧ al-Sīf	قنطرة ﭐلسيف	Qantara al-Sif	Qantara al-Sif
MAIDA_068W406N_S_ANDA	Andalus	-6.87557	40.62317	towns	cite	al-Maʾidaŧ	ﭐلمئدة	al-Maʾidaŧ	ﭐلمئدة	al-Maida	al-Maida
BATALYUS_069W388N_R_ANDA	Andalus	-6.99606	38.83500	regions	region	Baṭalyūs	بطليوس	Baṭalyūs, Baṭalyūṯ	بطليوس، بطليوث	Batalyus, Batalyuth	Batalyus, Batalyuth
BATALYUS_069W388N_S_ANDA	Andalus	-6.99606	38.83500	towns	cite	Baṭalyūs	بطليوس	Baṭalyūs, Baṭalyūṯ	بطليوس، بطليوث	Batalyus, Batalyuth	Batalyus, Batalyuth
JABALUYUN_069W374N_S_ANDA	Andalus	-6.99696	37.41112	towns	cite	Ǧabal al-ʿUyūn	جبل ﭐلعيون	Ǧabal al-ʿUyūn	جبل ﭐلعيون	Jabal al-Uyun	Jabal al-Uyun
BASH_071W388N_S_ANDA	Andalus	-7.17410	38.87561	towns	cite	al-Baš	ﭐلبش	al-Baš, Albas	ﭐلبش، ألبس	al-Bash, Albas	al-Bash, Albas
LAB_072W372N_S_ANDA	Andalus	-7.21996	37.23807	towns	cite	Lab	لب	Lab	لب	Lab	Lab
JALMANIYA_072W387N_S_ANDA	Andalus	-7.22985	38.77894	towns	cite	Ǧalmāniyaŧ	جلمانية	Ǧalmāniyaŧ	جلمانية	Jalmaniya	Jalmaniya
BAJA_078W380N_R_ANDA	Andalus	-7.80444	38.00689	regions	district	Bāǧaŧ	باجة	Bāǧaŧ	باجة	Baja	Baja
BAJA_078W380N_S_ANDA	Andalus	-7.80444	38.00689	towns	cite	Bāǧaŧ	باجة	Bāǧaŧ	باجة	Baja	Baja
BIZA_078W390N_S_ANDA	Andalus	-7.87188	39.02806	towns	cite	Bīzaŧ	بيزة	Bīzaŧ	بيزة	Biza	Biza
KHUSHUNUBA_079W370N_R_ANDA	Andalus	-7.90515	37.06463	regions	district	Ḫušunubaŧ	خشنبة	Ḫušunubaŧ, Uḫšunubaŧ	خشنبة، أخشنبة	Khushunuba, Ukhshunuba	Khushunuba, Ukhshunuba
KHUSHUNUBA_079W370N_S_ANDA	Andalus	-7.90515	37.06463	towns	cite?	Ḫušunubaŧ	خشنبة	Ḫušunubaŧ, Uḫšunubaŧ	خشنبة، أخشنبة	Khushunuba, Ukhshunuba	Khushunuba, Ukhshunuba
WADITAJU_080W395N_W_ANDA	Andalus	-8.03553	39.52990	waters	fleuve	Wādī Tāǧū	وادي تاجو	Wādī Tāǧū	وادي تاجو	Wadi Taju	Wadi Taju
MADINASHALAB_084W372N_S_ANDA	Andalus	-8.42308	37.22519	towns	cite	Madīnaŧ Šalab	مدينة شلب	Madīnaŧ Šalab, Šilb	مدينة شلب، شلب	Madina Shalab, Shilb	Madina Shalab, Shilb
QASRBANUWARDAS_084W383N_S_ANDA	Andalus	-8.48333	38.36698	towns	cite	Qaṣr Banū Wardās	قصر بنو ورداس	Qaṣr Banū Wardās	قصر بنو ورداس	Qasr Banu Wardas	Qasr Banu Wardas
SHANTARIN_087W392N_S_ANDA	Andalus	-8.71712	39.22337	towns	cite	Šantarīn	شنترين	Šantarīn	شنترين	Shantarin	Shantarin
LISHBUNA_091W387N_S_ANDA	Andalus	-9.14514	38.76878	towns	cite	Lišbūnaŧ	لشبونة	Lišbūnaŧ	لشبونة	Lishbuna	Lishbuna
MADAN_091W386N_S_ANDA	Andalus	-9.19189	38.64984	towns	cite	al-Maʿdan	ﭐلمعدن	al-Maʿdan	ﭐلمعدن	al-Madan	al-Madan
SHANTARA_093W388N_S_ANDA	Andalus	-9.37353	38.80838	villages	localite	Šantaraŧ	شنترة	Šantaraŧ	شنترة	Shantara	Shantara
BAYDA_005E418N_S_ANDA	Andalus	0.57785	41.83632	towns	cite	al-Bayḍāʾ	ﭐلبيضاء	al-Bayḍāʾ	ﭐلبيضاء	al-Bayda	al-Bayda
TURTUSHA_006E407N_S_ANDA	Andalus	0.60933	40.79221	towns	cite	Ṭurṭūšaŧ	طرطوشة	Ṭurṭūšaŧ	طرطوشة	Turtusha	Turtusha
LARIDA_006E416N_S_ANDA	Andalus	0.64889	41.60948	waystations	placefrontiere	Lāridaŧ	لاردة	Lāridaŧ	لاردة	Larida	Larida
YABISA_014E389N_R_ANDA	Andalus	1.41141	38.94978	regions	ile	Yābisaŧ	يابسة	Yābisaŧ	يابسة	Yabisa	Yabisa
BAHRRUM_017E372N_W_ANDA	Andalus	1.71713	37.28888	waters	mer	Baḥr al-Rūm	بحر ﭐلروم	Baḥr al-Rūm	بحر ﭐلروم	Bahr al-Rum	Bahr al-Rum
JIRUNDA_028E419N_S_ANDA	Andalus	2.84472	41.93607	towns	cite	Ǧirundaŧ	جرندة	Ǧirundaŧ	جرندة	Jirunda	Jirunda
ARBUNA_030E431N_S_ANDA	Andalus	3.00118	43.18643	towns	cite	Arbūnaŧ	أربونة	Arbūnaŧ	أربونة	Arbuna	Arbuna
MARASH_369E375N_S_AQUR	Aqur	36.92987	37.58314	waystations	placefrontiere	Marʿaš	مرعش	Marʿaš	مرعش	Marash	Marash
DULUK_371E371N_S_AQUR	Aqur	37.17675	37.17638	towns	cite	Dulūk	دلوك	Dulūk	دلوك	Duluk	Duluk
HADATH_375E377N_S_AQUR	Aqur	37.52545	37.73001	towns	cite	al-Ḥadaṯ	ﭐلحدث	al-Ḥadaṯ	ﭐلحدث	al-Hadath	al-Hadath
RABAN_376E374N_S_AQUR	Aqur	37.68027	37.43156	towns	cite	Raʿbān	رعبان	Raʿbān	رعبان	Raban	Raban
ZIBATRA_379E380N_S_AQUR	Aqur	37.90461	38.09311	waystations	placefrontiere	Zibaṭraŧ	زبطرة	Zibaṭraŧ	زبطرة	Zibatra	Zibatra
ARQA_379E383N_S_AQUR	Aqur	37.96251	38.36373	waystations	etape	ʿArqaŧ	عرقة	ʿArqaŧ	عرقة	Arqa	Arqa
MANBIJ_379E365N_S_AQUR	Aqur	37.98957	36.54651	towns	cite	Manbiǧ	منبج	Manbiǧ	منبج	Manbij	Manbij
HISNMANSUR_380E378N_S_AQUR	Aqur	38.05966	37.82371	waystations	placefrontiere	Ḥiṣn Manṣūr	حصن منصور	Ḥiṣn Manṣūr	حصن منصور	Hisn Mansur	Hisn Mansur
QASRSANJA_381E374N_S_AQUR	Aqur	38.19495	37.49466	towns	ville	Qaṣr Sanǧaŧ	قصر سنجة	Qaṣr Sanǧaŧ, Sanǧaŧ	قصر سنجة، سنجة	Qasr Sanja, Sanja	Qasr Sanja, Sanja
JISRMANBIJ_382E366N_S_AQUR	Aqur	38.22057	36.67173	towns	ville	Ǧisr Manbiǧ	جسر منبج	Ǧisr Manbiǧ	جسر منبج	Jisr Manbij	Jisr Manbij
MALATIN_383E383N_S_AQUR	Aqur	38.35767	38.35806	towns	cite	Malaṭīn	ملطين	Malaṭīn, Malaṭiyaŧ	ملطين، ملطية	Malatin, Malatiya	Malatin, Malatiya
SIFFIN_384E358N_O_AQUR	Aqur	38.41040	35.85660	sites	lieu	Ṣiffīn	صفين	Ṣiffīn	صفين	Siffin	Siffin
SARUJ_384E369N_R_AQUR	Aqur	38.43806	36.97910	regions	territoire	Sarūǧ	سروج	Sarūǧ	سروج	Saruj	Saruj
MUZANIYYA_385E372N_S_AQUR	Aqur	38.52691	37.28854	waystations	etape	al-Muzāniyyaŧ	ﭐلمزانية	al-Muzāniyyaŧ	ﭐلمزانية	al-Muzaniyya	al-Muzaniyya
QALAIBRIQ_385E390N_S_AQUR	Aqur	38.53819	39.05271	waystations	placefrontiere	Qalʿaŧ Ibrīq	قلعة إبريق	Qalʿaŧ Ibrīq	قلعة إبريق	Qala Ibriq	Qala Ibriq
SUMAYSAT_385E375N_S_AQUR	Aqur	38.54365	37.54334	towns	cite	Sumaysāṭ	سميساط	Sumaysāṭ	سميساط	Sumaysat	Sumaysat
TALLABDA_387E366N_S_AQUR	Aqur	38.72906	36.69218	waystations	etape	Tall ʿAbdā	تل عبدا	Tall ʿAbdā	تل عبدا	Tall Abda	Tall Abda
RUHA_388E371N_S_AQUR	Aqur	38.82122	37.14970	towns	cite	al-Ruhā	ﭐلرها	al-Ruhā	ﭐلرها	al-Ruha	al-Ruha
JULLAB_389E374N_S_AQUR	Aqur	38.91048	37.41051	waystations	etape	Ǧullāb	جلاب	Ǧullāb	جلاب	Jullab	Jullab
AYNRUMIYYA_389E363N_S_AQUR	Aqur	38.91206	36.34984	waystations	etape	ʿAyn al-Rūmiyyaŧ	عين ﭐلرومية	ʿAyn al-Rūmiyyaŧ	عين ﭐلرومية	Ayn al-Rumiyya	Ayn al-Rumiyya
DIYARMUDAR_389E365N_R_AQUR	Aqur	38.98256	36.56338	regions	circonscription	Diyār Muḍar	ديار مضر	Diyār Muḍar	ديار مضر	Diyar Mudar	Diyar Mudar
BAJARWAN_389E361N_S_AQUR	Aqur	38.98556	36.13571	towns	cite	Bāǧarwān	باجروان	Bāǧarwān	باجروان	Bajarwan	Bajarwan
KAMAKH_390E395N_S_AQUR	Aqur	39.02492	39.58627	waystations	placefrontiere	Kamaḫ	كمخ	Kamaḫ, Kamāḫ	كمخ، كماخ	Kamakh, Kamakh	Kamakh, Kamakh
RAQQA_390E359N_S_AQUR	Aqur	39.05128	35.94930	capitals	capitale	al-Raqqaŧ	ﭐلرقة	al-Raqqaŧ	ﭐلرقة	al-Raqqa	al-Raqqa
HISNMASLAMA_390E363N_S_AQUR	Aqur	39.07106	36.38728	towns	cite	Ḥiṣn Maslamaŧ	حصن مسلمة	Ḥiṣn Maslamaŧ	حصن مسلمة	Hisn Maslama	Hisn Maslama
RAFIQA_390E359N_S_AQUR	Aqur	39.07703	35.94235	quarters	faubourg	al-Rāfiqaŧ	ﭐلرافقة	al-Rāfiqaŧ	ﭐلرافقة	al-Rafiqa	al-Rafiqa
HARRAN_390E368N_S_AQUR	Aqur	39.08906	36.88438	towns	cite	Ḥarrān	حران	Ḥarrān	حران	Harran	Harran
NAHRBALIKH_390E361N_W_AQUR	Aqur	39.09656	36.11754	waters	riviere	Nahr al-Balīḫ	نهر ﭐلبليخ	Nahr al-Balīḫ	نهر ﭐلبليخ	Nahr al-Balikh	Nahr al-Balikh
TALLMAHRA_391E366N_S_AQUR	Aqur	39.13855	36.61998	towns	cite	Tall Maḥrá	تل محرى	Tall Maḥrá, Tall Baḥrá	تل محرى، تل بحرى	Tall Mahra, Tall Bahra	Tall Mahra, Tall Bahra
HISNZIYAD_392E387N_S_AQUR	Aqur	39.22470	38.75874	waystations	forteresse	Ḥiṣn Ziyād	حصن زياد	Ḥiṣn Ziyād	حصن زياد	Hisn Ziyad	Hisn Ziyad
BAMAQARA_393E377N_S_AQUR	Aqur	39.33450	37.75537	waystations	etape	Bāmaqarā	بامقرا	Bāmaqarā, Bāmaqdaŧ	بامقرا، بامقدة	Bamaqara, Bamaqda	Bamaqara, Bamaqda
GHURAYZ_394E353N_S_AQUR	Aqur	39.46613	35.32264	waystations	etape	al-Ġurayz 	ﭐلغريز 	al-Ġurayz , al-ʿUrayr	ﭐلغريز ، ﭐلعرير	al-Ghurayz , al-Urayr	al-Ghurayz , al-Urayr
JARNAN_396E379N_S_AQUR	Aqur	39.61765	37.92941	waystations	etape	Ǧarnān	جرنان	Ǧarnān	جرنان	Jarnan	Jarnan
TALLHUM_397E381N_S_AQUR	Aqur	39.75447	38.19784	towns	cite?	Tall Ḥūm	تل حوم	Tall Ḥūm	تل حوم	Tall Hum	Tall Hum
QASABA_397E350N_S_AQUR	Aqur	39.76511	35.05726	waystations	etape	al-Qaṣabaŧ	ﭐلقصبة	al-Qaṣabaŧ	ﭐلقصبة	al-Qasaba	al-Qasaba
TALLMAWZAN_397E372N_S_AQUR	Aqur	39.76550	37.22748	towns	cite	Tall Mawzan	تل موزن	Tall Mawzan	تل موزن	Tall Mawzan	Tall Mawzan
KHANUQA_398E357N_S_AQUR	Aqur	39.81661	35.75218	towns	cite	al-Ḫānūqaŧ	ﭐلخانوقة	al-Ḫānūqaŧ	ﭐلخانوقة	al-Khanuqa	al-Khanuqa
SHIMSHAT_398E386N_S_AQUR	Aqur	39.83119	38.61412	waystations	placefrontiere	Šimšāṭ	شمشاط	Šimšāṭ	شمشاط	Shimshat	Shimshat
MUBARAK_398E355N_S_AQUR	Aqur	39.83950	35.58832	villages	localite	al-Mubārak	ﭐلمبارك	al-Mubārak	ﭐلمبارك	al-Mubarak	al-Mubarak
BIRA_398E356N_S_AQUR	Aqur	39.87384	35.65809	villages	localite	Bīrā	بيرا	Bīrā	بيرا	Bira	Bira
RASAYN_400E368N_S_AQUR	Aqur	40.06404	36.83758	towns	cite	Raʾs al-ʿAyn	رأس ﭐلعين	Raʾs al-ʿAyn	رأس ﭐلعين	Ras al-Ayn	Ras al-Ayn
NAHRDHIB_400E380N_W_AQUR	Aqur	40.08449	38.07602	waters	riviere	Nahr al-Ḏīb	نهر ﭐلذيب	Nahr al-Ḏīb, Nahr al-Kilāb	نهر ﭐلذيب، نهر ﭐلكلاب	Nahr al-Dhib, Nahr al-Kilab	Nahr al-Dhib, Nahr al-Kilab
AWAMIL_400E349N_S_AQUR	Aqur	40.09518	34.93204	waystations	etape	al-ʿAwāmil	ﭐلعوامل	al-ʿAwāmil	ﭐلعوامل	al-Awamil	al-Awamil
FAMNAHRSAID_401E353N_S_AQUR	Aqur	40.13133	35.32381	waystations	etape	Fam Nahr Saʿīd	فم نهر سعيد	Fam Nahr Saʿīd	فم نهر سعيد	Fam Nahr Said	Fam Nahr Said
AMID_402E379N_S_AQUR	Aqur	40.21323	37.91510	capitals	capitale	Āmid	آمد	Āmid	آمد	Amid	Amid
NAHRARSANAS_402E387N_W_AQUR	Aqur	40.22779	38.77905	waters	riviere	Nahr Arsanās	نهر أرسناس	Nahr Arsanās	نهر أرسناس	Nahr Arsanas	Nahr Arsanas
QASRIBNNAZI_403E374N_S_AQUR	Aqur	40.32760	37.40829	waystations	etape	Qaṣr Ibn Nāziʿ	قصر إبن نازع	Qaṣr Ibn Nāziʿ, Qaṣr Banū Nāziʿ	قصر إبن نازع، قصر بنو نازع	Qasr Ibn Nazi, Qasr Banu Nazi	Qasr Ibn Nazi, Qasr Banu Nazi
JAHSHIYYA_404E366N_S_AQUR	Aqur	40.41354	36.65489	towns	cite	al-Ǧaḥšiyyaŧ	ﭐلجحشية	al-Ǧaḥšiyyaŧ	ﭐلجحشية	al-Jahshiyya	al-Jahshiyya
WADIRAMS_404E381N_W_AQUR	Aqur	40.42465	38.18191	waters	riviere	Wādī al-Rams	وادي ﭐلرمس	Wādī al-Rams, al-Rass, Wādī Ṣalb	وادي ﭐلرمس، ﭐلرس، وادي صلب	Wadi al-Rams, al-Rass, Wadi Salb	Wadi al-Rams, al-Rass, Wadi Salb
KAFARTUTHA_404E369N_S_AQUR	Aqur	40.42704	36.98749	towns	cite	Kafartūṯā	كفرتوثا	Kafartūṯā	كفرتوثا	Kafartutha	Kafartutha
QARQISIYYA_404E351N_S_AQUR	Aqur	40.43747	35.14620	towns	cite	Qarqīsiyyaŧ	قرقيسية	Qarqīsiyyaŧ	قرقيسية	Qarqisiyya	Qarqisiyya
QAMARTI_404E348N_S_AQUR	Aqur	40.45161	34.81073	waystations	etape	al-Qamarṭī	ﭐلقمرطي	al-Qamarṭī, al-Qamraṭī	ﭐلقمرطي، ﭐلقمرطي	al-Qamarti, al-Qamrati	al-Qamarti, al-Qamrati
RAHBAMALIKIBNTAWQ_404E349N_S_AQUR	Aqur	40.45784	34.98817	towns	cite	Raḥbaŧ Malik Ibn Ṭawq	رحبة ملك إبن طوق	Raḥbaŧ Malik Ibn Ṭawq	رحبة ملك إبن طوق	Rahba Malik Ibn Tawq	Rahba Malik Ibn Tawq
MAJDAL_405E365N_S_AQUR	Aqur	40.55153	36.53446	towns	cite	al-Maǧdal	ﭐلمجدل	al-Maǧdal	ﭐلمجدل	al-Majdal	al-Majdal
RIBATDHUQARNAYN_405E385N_S_AQUR	Aqur	40.56071	38.57565	waystations	forteresse	Ribāṭ Ḏū al-Qarnayn	رباط ذو ﭐلقرنين	Ribāṭ Ḏū al-Qarnayn	رباط ذو ﭐلقرنين	Ribat Dhu al-Qarnayn	Ribat Dhu al-Qarnayn
FASH_405E349N_S_AQUR	Aqur	40.56368	34.92311	waystations	etape	al-Fāš	ﭐلفاش	al-Fāš	ﭐلفاش	al-Fash	al-Fash
DUNAYSIR_405E371N_S_AQUR	Aqur	40.58146	37.16749	villages	localite	Dunaysīr	دنيسير	Dunaysīr	دنيسير	Dunaysir	Dunaysir
SUKAYRABBAS_405E352N_S_AQUR	Aqur	40.58767	35.24207	towns	cite	Sukayr al-ʿAbbās	سكير ﭐلعباس	Sukayr al-ʿAbbās	سكير ﭐلعباس	Sukayr al-Abbas	Sukayr al-Abbas
FUDAYN_405E354N_S_AQUR	Aqur	40.59626	35.41480	towns	cite	al-Fudayn	ﭐلفدين	al-Fudayn	ﭐلفدين	al-Fudayn	al-Fudayn
SUWWAR_406E354N_S_AQUR	Aqur	40.65491	35.49287	towns	cite	al-Ṣuwwār	ﭐلصوار	al-Ṣuwwār	ﭐلصوار	al-Suwwar	al-Suwwar
DIYARBAKR_406E378N_R_AQUR	Aqur	40.67909	37.84795	regions	circonscription	Diyār Bakr	ديار بكر	Diyār Bakr	ديار بكر	Diyar Bakr	Diyar Bakr
ARABAN_406E360N_S_AQUR	Aqur	40.69403	36.05814	capitals	capitale	ʿArabān	عربان	ʿArabān	عربان	Araban	Araban
MARDIN_407E373N_S_AQUR	Aqur	40.71117	37.30186	towns	cite	Mārdīn	ماردين	Mārdīn	ماردين	Mardin	Mardin
HUSAYN_407E356N_S_AQUR	Aqur	40.71642	35.62321	towns	cite	al-Ḥuṣayn	ﭐلحصين	al-Ḥuṣayn	ﭐلحصين	al-Husayn	al-Husayn
NAHRKHABUR_407E355N_W_AQUR	Aqur	40.73502	35.50335	waters	riviere	Nahr al-Ḫābūr	نهر ﭐلخابور	Nahr al-Ḫābūr	نهر ﭐلخابور	Nahr al-Khabur	Nahr al-Khabur
DALIYA_407E347N_S_AQUR	Aqur	40.74111	34.71355	towns	cite	al-Dāliyaŧ	ﭐلدالية	al-Dāliyaŧ	ﭐلدالية	al-Daliya	al-Daliya
MATARIYYA_407E361N_S_AQUR	Aqur	40.75853	36.19626	villages	localite	al-Maṭariyyaŧ	ﭐلمطرية	al-Maṭariyyaŧ	ﭐلمطرية	al-Matariyya	al-Matariyya
MIKISIN_407E357N_S_AQUR	Aqur	40.75934	35.74173	towns	cite	Mīkisīn	ميكسين	Mīkisīn, Maykisīn, Mākisīn	ميكسين، ميكسين، ماكسين	Mikisin, Maykisin, Makisin	Mikisin, Maykisin, Makisin
TABAN_407E361N_S_AQUR	Aqur	40.76153	36.16114	towns	cite	Ṭābān	طابان	Ṭābān, Ṭalabān	طابان، طلبان	Taban, Talaban	Taban, Talaban
FURDA_407E346N_S_AQUR	Aqur	40.78158	34.67900	villages	localite	al-Furḍaŧ	ﭐلفرضة	al-Furḍaŧ	ﭐلفرضة	al-Furda	al-Furda
KHALIJBANUJUMAY_408E345N_S_AQUR	Aqur	40.85162	34.54577	waystations	etape	Ḫalīǧ Banū Ǧumayʿ	خليج بنو جميع	Ḫalīǧ Banū Ǧumayʿ	خليج بنو جميع	Khalij Banu Jumay	Khalij Banu Jumay
THURABDIN_408E374N_S_AQUR	Aqur	40.86321	37.40165	towns	canton	Ṯūr ʿAbdīn	ثور عبدين	Ṯūr ʿAbdīn	ثور عبدين	Thur Abdin	Thur Abdin
TUNANIR_408E363N_S_AQUR	Aqur	40.87703	36.38969	towns	cite	Tunānīr	تنانير	Tunānīr, Tunaynīr	تنانير، تنينير	Tunanir, Tunaynir	Tunanir, Tunaynir
SHAMSINIYYA_409E358N_S_AQUR	Aqur	40.90954	35.86703	towns	cite	al-Šamsīniyyaŧ	ﭐلشمسينية	al-Šamsīniyyaŧ, al-Šamsāniyyaŧ	ﭐلشمسينية، ﭐلشمسانية	al-Shamsiniyya, al-Shamsaniyya	al-Shamsiniyya, al-Shamsaniyya
WADISIBA_409E344N_S_AQUR	Aqur	40.92477	34.42004	waystations	etape	Wādī al-Sibāʿ	وادي ﭐلسباع	Wādī al-Sibāʿ	وادي ﭐلسباع	Wadi al-Siba	Wadi al-Siba
DARA_409E371N_S_AQUR	Aqur	40.94689	37.18527	towns	cite	Dārā	دارا	Dārā	دارا	Dara	Dara
MAYYAFARIQIN_410E381N_S_AQUR	Aqur	41.00798	38.14322	towns	cite	Mayyāfāriqīn	ميافارقين	Mayyāfāriqīn	ميافارقين	Mayyafariqin	Mayyafariqin
MUNKHARIQ_411E353N_S_AQUR	Aqur	41.13557	35.33548	towns	cite?	al-Munḫariq	ﭐلمنخرق	al-Munḫariq	ﭐلمنخرق	al-Munkhariq	al-Munkhariq
DAZIQI_411E343N_S_AQUR	Aqur	41.15980	34.33397	waystations	etape	Dāziqī	دازقي	Dāziqī	دازقي	Daziqi	Daziqi
WADIMASULIYAT_411E379N_W_AQUR	Aqur	41.17006	37.98330	waters	riviere	Wādī Masūliyāt	وادي مسوليات	Wādī Masūliyāt, Nahr Sātīdamā, Wādī Sātīdamā	وادي مسوليات، نهر ساتيدما، وادي ساتيدما	Wadi Masuliyat, Nahr Satidama, Wadi Satidama	Wadi Masuliyat, Nahr Satidama, Wadi Satidama
NASIBIN_412E370N_S_AQUR	Aqur	41.22167	37.05514	towns	cite	Naṣībīn	نصيبين	Naṣībīn	نصيبين	Nasibin	Nasibin
NAHRHIRMAS_412E371N_W_AQUR	Aqur	41.24817	37.13080	waters	riviere	Nahr al-Hirmās	نهر ﭐلهرماس	Nahr al-Hirmās	نهر ﭐلهرماس	Nahr al-Hirmas	Nahr al-Hirmas
BUHAYRAKHATUNIYYA_412E363N_W_AQUR	Aqur	41.25352	36.38728	waters	lac	Buḥayraŧ Ḫātūniyyaŧ	بحيرة خاتونية	Buḥayraŧ Ḫātūniyyaŧ	بحيرة خاتونية	Buhayra Khatuniyya	Buhayra Khatuniyya
TALLFARASHA_413E369N_S_AQUR	Aqur	41.34352	36.98150	villages	localite	Tall Farāšaŧ	تل فراشة	Tall Farāšaŧ	تل فراشة	Tall Farasha	Tall Farasha
HISNKAYFA_414E377N_S_AQUR	Aqur	41.42113	37.70021	towns	cite	Ḥiṣn Kayfā	حصن كيفا	Ḥiṣn Kayfā	حصن كيفا	Hisn Kayfa	Hisn Kayfa
WADISARBAT_414E380N_W_AQUR	Aqur	41.49366	38.01078	waters	riviere	Wādī Ṣarbaṭ	وادي صربط	Wādī Ṣarbaṭ, Nahr Ṣarbaṭ, Ṣarbaṭ	وادي صربط، نهر صربط، صربط	Wadi Sarbat, Nahr Sarbat, Sarbat	Wadi Sarbat, Nahr Sarbat, Sarbat
NIHIYYA_415E343N_S_AQUR	Aqur	41.55670	34.39307	towns	cite	al-Nihiyyaŧ	ﭐلنهية	al-Nihiyyaŧ	ﭐلنهية	al-Nihiyya	al-Nihiyya
JIBAL_416E362N_S_AQUR	Aqur	41.62102	36.23740	towns	cite	al-Ǧibāl	ﭐلجبال	al-Ǧibāl, ʿAyn al-Ǧibāl	ﭐلجبال، عين ﭐلجبال	al-Jibal, Ayn al-Jibal	al-Jibal, Ayn al-Jibal
ARZAN_416E379N_S_AQUR	Aqur	41.65964	37.97890	villages	localite	Arzan	أرزن	Arzan	أرزن	Arzan	Arzan
ADHRAMA_417E369N_S_AQUR	Aqur	41.72002	36.99109	towns	cite	Aḏramaŧ	أذرمة	Aḏramaŧ	أذرمة	Adhrama	Adhrama
TALLFAFAN_417E377N_S_AQUR	Aqur	41.78238	37.72559	towns	cite	Tall Fāfān	تل فافان	Tall Fāfān, ʿAyn Tall Fāfān	تل فافان، عين تل فافان	Tall Fafan, Ayn Tall Fafan	Tall Fafan, Ayn Tall Fafan
SINJAR_418E363N_S_AQUR	Aqur	41.89101	36.32446	towns	cite	Sinǧār	سنجار	Sinǧār	سنجار	Sinjar	Sinjar
TANZA_419E377N_S_AQUR	Aqur	41.91628	37.78735	villages	localite	Ṭanzaŧ	طنزة	Ṭanzaŧ	طنزة	Tanza	Tanza
ANA_419E344N_S_AQUR	Aqur	41.95904	34.43481	towns	cite	ʿĀnaŧ	عانة	ʿĀnaŧ	عانة	Ana	Ana
NAHRRAZB_419E378N_W_AQUR	Aqur	41.97905	37.88869	waters	riviere	Nahr al-Razb	نهر ﭐلرزب	Nahr al-Razb, al-Razm, al-Zarm	نهر ﭐلرزب، ﭐلرزم، ﭐلزرم	Nahr al-Razb, al-Razm, al-Zarm	Nahr al-Razb, al-Razm, al-Zarm
DIYARRABIA_419E366N_R_AQUR	Aqur	41.99451	36.65368	regions	circonscription	Diyār Rabīʿaŧ	ديار ربيعة	Diyār Rabīʿaŧ	ديار ربيعة	Diyar Rabia	Diyar Rabia
BARQAID_420E369N_S_AQUR	Aqur	42.07551	36.95274	towns	cite	Barqaʿīd	برقعيد	Barqaʿīd	برقعيد	Barqaid	Barqaid
BADLIS_421E383N_S_AQUR	Aqur	42.13266	38.39550	towns	cite	Badlīs	بدليس	Badlīs, Bidlīs	بدليس، بدليس	Badlis, Bidlis	Badlis, Bidlis
FUHAYMA_421E342N_S_AQUR	Aqur	42.18317	34.23688	villages	localite	al-Fuḥaymaŧ	ﭐلفحيمة	al-Fuḥaymaŧ	ﭐلفحيمة	al-Fuhayma	al-Fuhayma
JAZIRAIBNUMAR_421E372N_R_AQUR	Aqur	42.19943	37.28521	regions	territoire	Ǧazīraŧ Ibn ʿUmar	جزيرة إبن عمر	Ǧazīraŧ Ibn ʿUmar	جزيرة إبن عمر	Jazira Ibn Umar	Jazira Ibn Umar
HADITHA_423E341N_S_AQUR	Aqur	42.38707	34.10682	towns	cite	al-Ḥadīṯaŧ	ﭐلحديثة	al-Ḥadīṯaŧ	ﭐلحديثة	al-Haditha	al-Haditha
ALUS_424E339N_S_AQUR	Aqur	42.41353	33.98559	towns	cite	Ālūs	آلوس	Ālūs, Ālūsā	آلوس، آلوسا	Alus, Alusa	Alus, Alusa
FAYSHABUR_424E370N_S_AQUR	Aqur	42.43096	37.04735	towns	cite	Fayšābūr	فيشابور	Fayšābūr	فيشابور	Fayshabur	Fayshabur
BAAYNATHA_424E366N_S_AQUR	Aqur	42.43701	36.66090	towns	cite	Bāʿaynāṯā	باعيناثا	Bāʿaynāṯā	باعيناثا	Baaynatha	Baaynatha
TALLAFAR_424E363N_S_AQUR	Aqur	42.49401	36.36312	towns	cite	Tall Aʿfar	تل أعفر	Tall Aʿfar	تل أعفر	Tall Afar	Tall Afar
KHIZANA_425E339N_S_AQUR	Aqur	42.50069	33.98430	waystations	etape?	al-Ḫizānaŧ	ﭐلخزانة	al-Ḫizānaŧ	ﭐلخزانة	al-Khizana	al-Khizana
JABALJUDI_425E373N_O_AQUR	Aqur	42.51884	37.36064	sites	montagne	Ǧabal al-Ǧūdī	جبل ﭐلجودي	Ǧabal al-Ǧūdī	جبل ﭐلجودي	Jabal al-Judi	Jabal al-Judi
MALAZKIRD_425E391N_S_AQUR	Aqur	42.55713	39.14370	towns	cite	Malāzkird	ملازكرد	Malāzkird, Malāzǧird, Manāzǧird	ملازكرد، ملازجرد، منازجرد	Malazkird, Malazjird, Manazjird	Malazkird, Malazjird, Manazjird
THAMANIN_426E373N_S_AQUR	Aqur	42.64158	37.31295	towns	cite	Ṯamānīn	ثمانين	Ṯamānīn	ثمانين	Thamanin	Thamanin
HADR_426E357N_S_AQUR	Aqur	42.69628	35.79513	towns	cite	al-Ḥaḍr	ﭐلحضر	al-Ḥaḍr	ﭐلحضر	al-Hadr	al-Hadr
HASANIYYA_427E371N_S_AQUR	Aqur	42.72248	37.11078	towns	cite	al-Ḥasaniyyaŧ	ﭐلحسنية	al-Ḥasaniyyaŧ	ﭐلحسنية	al-Hasaniyya	al-Hasaniyya
BALAD_427E364N_S_AQUR	Aqur	42.75800	36.47417	towns	cite	Balad	بلد	Balad	بلد	Balad	Balad
MAHLABIYYA_427E362N_S_AQUR	Aqur	42.76550	36.25676	villages	localite	al-Maḥlabiyyaŧ	ﭐلمحلبية	al-Maḥlabiyyaŧ	ﭐلمحلبية	al-Mahlabiyya	al-Mahlabiyya
KHABURHASANIYYA_428E370N_W_AQUR	Aqur	42.80477	37.06628	waters	riviere	Ḫābūr al-Ḥasaniyyaŧ	خابور ﭐلحسنية	Ḫābūr al-Ḥasaniyyaŧ	خابور ﭐلحسنية	Khabur al-Hasaniyya	Khabur al-Hasaniyya
MALATHAYA_429E368N_S_AQUR	Aqur	42.96350	36.81597	towns	cite	Maʿlaṯāyaŧ	معلثاية	Maʿlaṯāyaŧ	معلثاية	Malathaya	Malathaya
SHAHHAJIYYA_429E362N_S_AQUR	Aqur	42.96650	36.27006	waystations	etape	al-Šaḥḥāǧiyyaŧ	ﭐلشحاجية	al-Šaḥḥāǧiyyaŧ	ﭐلشحاجية	al-Shahhajiyya	al-Shahhajiyya
NAHRTHARTHAR_430E350N_W_AQUR	Aqur	43.04545	35.00028	waters	riviere	Nahr Ṯarṯār	نهر ثرثار	Nahr Ṯarṯār	نهر ثرثار	Nahr Tharthar	Nahr Tharthar
MAZARII_430E366N_S_AQUR	Aqur	43.05500	36.63683	villages	localite	Mazāriʿī	مزارعي	Mazāriʿī	مزارعي	Mazarii	Mazarii
MAWSIL_431E363N_S_AQUR	Aqur	43.12700	36.32809	capitals	capitale	al-Mawṣil	ﭐلموصل	al-Mawṣil	ﭐلموصل	al-Mawsil	al-Mawsil
NINAWA_431E363N_S_AQUR	Aqur	43.17500	36.35104	towns	cite	Nīnawá	نينوى	Nīnawá, Nūnawā	نينوى، نونوا	Ninawa, Nunawa	Ninawa, Nunawa
MARJJUHAYNA_432E361N_S_AQUR	Aqur	43.26652	36.14235	towns	cite	Marǧ Ǧuhaynaŧ	مرج جهينة	Marǧ Ǧuhaynaŧ, Mar Ǧuhaynaŧ	مرج جهينة، مر جهينة	Marj Juhayna, Mar Juhayna	Marj Juhayna, Mar Juhayna
BAQIA_433E356N_S_AQUR	Aqur	43.32428	35.62554	waystations	etape	al-Baqīʿaŧ	ﭐلبقيعة	al-Baqīʿaŧ	ﭐلبقيعة	al-Baqia	al-Baqia
BAASHIQA_433E364N_S_AQUR	Aqur	43.36699	36.41022	villages	bourgade	Bāʿašīqā	باعشيقا	Bāʿašīqā	باعشيقا	Baashiqa	Baashiqa
HADITHA_433E360N_S_AQUR	Aqur	43.39249	36.02054	towns	cite	al-Ḥadīṯaŧ	ﭐلحديثة	al-Ḥadīṯaŧ	ﭐلحديثة	al-Haditha	al-Haditha
NAHRDIJLA_436E346N_W_AQUR	Aqur	43.60422	34.69499	waters	riviere	Nahr Diǧlaŧ	نهر دجلة	Nahr Diǧlaŧ	نهر دجلة	Nahr Dijla	Nahr Dijla
ZABKABIR_438E363N_W_AQUR	Aqur	43.87398	36.37520	waters	riviere	Zāb al-Kabīr	زاب ﭐلكبير	Zāb al-Kabīr, Zāb al-Aʿlá	زاب ﭐلكبير، زاب ﭐلأعلى	Zab al-Kabir, Zab al-Ala	Zab al-Kabir, Zab al-Ala
ZABSAGHIR_441E356N_W_AQUR	Aqur	44.10965	35.64182	waters	riviere	Zāb al-Ṣaġīr	زاب ﭐلصغير	Zāb al-Ṣaġīr, Zāb al-Asfal	زاب ﭐلصغير، زاب ﭐلأسفل	Zab al-Saghir, Zab al-Asfal	Zab al-Saghir, Zab al-Asfal
NAHRFURAT_412E344N_W_AQUR	Aqur/Iraq	41.21428	34.45727	waters	riviere	Nahr al-Furāt	نهر ﭐلفرات	Nahr al-Furāt	نهر ﭐلفرات	Nahr al-Furat	Nahr al-Furat
TABUK_365E283N_S_BADI	Badiyat al-Arab	36.50620	28.37114	towns	cite	Tabūk	تبوك	Tabūk	تبوك	Tabuk	Tabuk
UBAYR_367E307N_S_BADI	Badiyat al-Arab	36.70106	30.73317	waystations	etape	Ubayr	أبير	Ubayr, Wubayr	أبير، وبير	Ubayr, Wubayr	Ubayr, Wubayr
ANAK_367E323N_S_BADI	Badiyat al-Arab	36.79381	32.31179	waystations	etape	al-Aʿnak	ﭐلأعنك	al-Aʿnak	ﭐلأعنك	al-Anak	al-Anak
AZRAQ_368E318N_S_BADI	Badiyat al-Arab	36.87768	31.84612	waystations	etape	al-Azraq	ﭐلأزرق	al-Azraq	ﭐلأزرق	al-Azraq	al-Azraq
AWNID_369E316N_S_BADI	Badiyat al-Arab	36.92899	31.64055	waystations	etape	al-ʿAwnīd	ﭐلعونيد	al-ʿAwnīd	ﭐلعونيد	al-Awnid	al-Awnid
MUHDATHA_371E315N_S_BADI	Badiyat al-Arab	37.15494	31.51278	waystations	etape	al-Muḥdaṯaŧ	ﭐلمحدثة	al-Muḥdaṯaŧ	ﭐلمحدثة	al-Muhdatha	al-Muhdatha
JUNAYNA_371E279N_S_BADI	Badiyat al-Arab	37.19786	27.92136	waystations	etape	al-Ǧunaynaŧ	ﭐلجنينة	al-Ǧunaynaŧ	ﭐلجنينة	al-Junayna	al-Junayna
BAQIA_373E322N_S_BADI	Badiyat al-Arab	37.32662	32.21167	waystations	etape	al-Baqīʿaŧ	ﭐلبقيعة	al-Baqīʿaŧ	ﭐلبقيعة	al-Baqia	al-Baqia
GHURRABA_373E313N_S_BADI	Badiyat al-Arab	37.34142	31.36925	towns	cite	al-Ġurrabaŧ	ﭐلغربة	al-Ġurrabaŧ	ﭐلغربة	al-Ghurraba	al-Ghurraba
AJWALI_374E298N_S_BADI	Badiyat al-Arab	37.43170	29.87858	waystations	etape	al-Aǧwalī	ﭐلأجولي	al-Aǧwalī	ﭐلأجولي	al-Ajwali	al-Ajwali
MUHDATHA_374E277N_S_BADI	Badiyat al-Arab	37.46327	27.73026	waystations	etape	al-Muḥdaṯaŧ	ﭐلمحدثة	al-Muḥdaṯaŧ	ﭐلمحدثة	al-Muhdatha	al-Muhdatha
NABK_374E312N_S_BADI	Badiyat al-Arab	37.46475	31.21242	waystations	pointdeau	al-Nabk	ﭐلنبك	al-Nabk	ﭐلنبك	al-Nabk	al-Nabk
QURAKIR_377E313N_S_BADI	Badiyat al-Arab	37.75187	31.32585	waystations	etape	Qurākir	قراكر	Qurākir, Qurāqir	قراكر، قراقر	Qurakir, Quraqir	Qurakir, Quraqir
AQRA_378E271N_S_BADI	Badiyat al-Arab	37.83126	27.15186	waystations	etape	al-Aqrāʿ	ﭐلأقراع	al-Aqrāʿ	ﭐلأقراع	al-Aqra	al-Aqra
SUWA_378E337N_S_BADI	Badiyat al-Arab	37.85153	33.72767	waystations	etape	Suwá	سوى	Suwá	سوى	Suwa	Suwa
THAJR_378E288N_S_BADI	Badiyat al-Arab	37.89149	28.87521	waystations	pointdeau	Ṯaǧr	ثجر	Ṯaǧr	ثجر	Thajr	Thajr
BATNSIRR_379E308N_R_BADI	Badiyat al-Arab	37.96500	30.86285	regions	region	Baṭn al-Sirr	بطن ﭐلسر	Baṭn al-Sirr	بطن ﭐلسر	Batn al-Sirr	Batn al-Sirr
SAIDA_379E321N_S_BADI	Badiyat al-Arab	37.98572	32.13274	waystations	etape	al-Sāʿidaŧ	ﭐلساعدة	al-Sāʿidaŧ	ﭐلساعدة	al-Saida	al-Saida
JARBA_381E304N_S_BADI	Badiyat al-Arab	38.12681	30.48436	waystations	mares	al-Ǧarbā	ﭐلجربا	al-Ǧarbā, al-Ǧarbá	ﭐلجربا، ﭐلجربى	al-Jarba, al-Jarba	al-Jarba, al-Jarba
TAYMA_385E275N_S_BADI	Badiyat al-Arab	38.52000	27.58081	towns	cite	Taymāʾ	تيماء	Taymāʾ	تيماء	Tayma	Tayma
RAWARA_386E320N_S_BADI	Badiyat al-Arab	38.64087	32.03911	waystations	etape	al-Rawārá	ﭐلروارى	al-Rawārá, al-Dawārá	ﭐلروارى، ﭐلدوارى	al-Rawara, al-Dawara	al-Rawara, al-Dawara
ARFAJA_386E299N_S_BADI	Badiyat al-Arab	38.67294	29.99999	waystations	mares	ʿArfaǧāʾ	عرفجاء	ʿArfaǧāʾ	عرفجاء	Arfaja	Arfaja
MUKHRI_387E290N_S_BADI	Badiyat al-Arab	38.70747	29.01767	waystations	pointdeau	Muḫrī	مخري	Muḫrī	مخري	Mukhri	Mukhri
UJAYFIR_387E316N_S_BADI	Badiyat al-Arab	38.71981	31.65819	waystations	etape	al-Uǧayfir	ﭐلأجيفر	al-Uǧayfir	ﭐلأجيفر	al-Ujayfir	al-Ujayfir
QULUFI_395E321N_S_BADI	Badiyat al-Arab	39.59203	32.14778	waystations	etape	al-Qulūfī	ﭐلقلوفي	al-Qulūfī, al-ʿAlawī	ﭐلقلوفي، ﭐلعلوي	al-Qulufi, al-Alawi	al-Qulufi, al-Alawi
KHAFIYYA_396E319N_S_BADI	Badiyat al-Arab	39.67590	31.99770	waystations	etape	al-Ḫafiyyaŧ	ﭐلخفية	al-Ḫafiyyaŧ	ﭐلخفية	al-Khafiyya	al-Khafiyya
HASHIYYA_398E314N_S_BADI	Badiyat al-Arab	39.82192	31.43199	waystations	etape	al-Ḥašiyyaŧ	ﭐلحشية	al-Ḥašiyyaŧ	ﭐلحشية	al-Hashiyya	al-Hashiyya
DAWMAJANDAL_398E297N_S_BADI	Badiyat al-Arab	39.87767	29.75959	villages	localite	Dawmaŧ al-Ǧandal	دومة ﭐلجندل	Dawmaŧ al-Ǧandal	دومة ﭐلجندل	Dawma al-Jandal	Dawma al-Jandal
JUBBA_401E318N_S_BADI	Badiyat al-Arab	40.18305	31.84948	waystations	etape	al-Ǧubbaŧ	ﭐلجبة	al-Ǧubbaŧ, al-Maḥnaŧ	ﭐلجبة، ﭐلمحنة	al-Jubba, al-Mahna	al-Jubba, al-Mahna
KHATTA_407E316N_S_BADI	Badiyat al-Arab	40.70599	31.64853	waystations	etape	al-Ḫaṭṭá	ﭐلخطى	al-Ḫaṭṭá	ﭐلخطى	al-Khatta	al-Khatta
KHANFAS_407E314N_S_BADI	Badiyat al-Arab	40.76716	31.48039	waystations	etape	al-Ḫanfas	ﭐلخنفس	al-Ḫanfas, al-Ḥanfas, al-Ǧanfas	ﭐلخنفس، ﭐلحنفس، ﭐلجنفس	al-Khanfas, al-Hanfas, al-Janfas	al-Khanfas, al-Hanfas, al-Janfas
KHALAT_413E320N_S_BADI	Badiyat al-Arab	41.37298	32.07507	waystations	etape	al-Ḫalāṭ	ﭐلخلاط	al-Ḫalāṭ	ﭐلخلاط	al-Khalat	al-Khalat
JAM_414E316N_S_BADI	Badiyat al-Arab	41.46573	31.67372	waystations	etape	al-Ǧamʿ	ﭐلجمع	al-Ǧamʿ	ﭐلجمع	al-Jam	al-Jam
QURAY_417E315N_S_BADI	Badiyat al-Arab	41.79330	31.51068	waystations	etape	al-Qurāy	ﭐلقراي	al-Qurāy	ﭐلقراي	al-Quray	al-Quray
WADITAYY_419E270N_R_BADI	Badiyat al-Arab	41.94575	27.05571	regions	vallee	Wādī Ṭayy	وادي طي	Wādī Ṭayy	وادي طي	Wadi Tayy	Wadi Tayy
HUSA_420E317N_S_BADI	Badiyat al-Arab	42.07352	31.70731	waystations	etape	al-Ḥusá	ﭐلحسى	al-Ḥusá, al-Ǧusá	ﭐلحسى، ﭐلجسى	al-Husa, al-Jusa	al-Husa, al-Jusa
MANHAB_422E272N_R_BADI	Badiyat al-Arab	42.21215	27.27430	regions	region	al-Manhab	ﭐلمنهب	al-Manhab	ﭐلمنهب	al-Manhab	al-Manhab
AKHDAMIYYA_422E322N_S_BADI	Badiyat al-Arab	42.23928	32.28927	waystations	etape	al-Aḫdamiyyaŧ	ﭐلأخدمية	al-Aḫdamiyyaŧ	ﭐلأخدمية	al-Akhdamiyya	al-Akhdamiyya
SALMA_423E272N_R_BADI	Badiyat al-Arab	42.35028	27.24360	regions	region	Salmā	سلما	Salmā	سلما	Salma	Salma
ABYAD_424E318N_S_BADI	Badiyat al-Arab	42.45438	31.86163	waystations	etape	al-Abyaḍ	ﭐلأبيض	al-Abyaḍ	ﭐلأبيض	al-Abyad	al-Abyad
FAYD_425E270N_S_BADI	Badiyat al-Arab	42.50815	27.06977	towns	cite	Fayd	فيد	Fayd	فيد	Fayd	Fayd
NAHIT_428E314N_S_BADI	Badiyat al-Arab	42.85300	31.49890	waystations	etape	al-Naḥīt	ﭐلنحيت	al-Naḥīt	ﭐلنحيت	al-Nahit	al-Nahit
AJFUR_429E274N_S_BADI	Badiyat al-Arab	42.97781	27.44255	waystations	etape	al-Aǧfur	ﭐلأجفر	al-Aǧfur	ﭐلأجفر	al-Ajfur	al-Ajfur
KHUZAYMIYYA_431E279N_S_BADI	Badiyat al-Arab	43.13666	27.91046	waystations	etape	al-Ḫuzaymiyyaŧ	ﭐلخزيمية	al-Ḫuzaymiyyaŧ	ﭐلخزيمية	al-Khuzaymiyya	al-Khuzaymiyya
THALABIYYA_431E282N_S_BADI	Badiyat al-Arab	43.16528	28.29472	waystations	forteresse	al-Ṯaʿlabiyyaŧ	ﭐلثعلبية	al-Ṯaʿlabiyyaŧ	ﭐلثعلبية	al-Thalabiyya	al-Thalabiyya
BITAN_432E287N_S_BADI	Badiyat al-Arab	43.27579	28.74899	waystations	etape	Biṭān	بطان	Biṭān, Qabr al-ʿIdādī	بطان، قبر ﭐلعدادي	Bitan, Qabr al-Idadi	Bitan, Qabr al-Idadi
SHUQUQ_434E290N_S_BADI	Badiyat al-Arab	43.41491	29.08495	waystations	etape	al-Šuqūq	ﭐلشقوق	al-Šuqūq	ﭐلشقوق	al-Shuquq	al-Shuquq
ZUBALA_435E294N_S_BADI	Badiyat al-Arab	43.56390	29.40521	waystations	forteresse	Zubālaŧ	زبالة	Zubālaŧ	زبالة	Zubala	Zubala
QA_436E297N_S_BADI	Badiyat al-Arab	43.61126	29.78571	waystations	etape	al-Qāʾ	ﭐلقاء	al-Qāʾ	ﭐلقاء	al-Qa	al-Qa
AQABA_436E300N_S_BADI	Badiyat al-Arab	43.61471	30.09074	waystations	etape	al-ʿAqabaŧ	ﭐلعقبة	al-ʿAqabaŧ	ﭐلعقبة	al-Aqaba	al-Aqaba
WAQISA_437E305N_S_BADI	Badiyat al-Arab	43.77652	30.55363	waystations	forteresse	Wāqisaŧ	واقسة	Wāqisaŧ	واقسة	Waqisa	Waqisa
QARA_438E308N_S_BADI	Badiyat al-Arab	43.81303	30.87576	waystations	puits	Qarʿāʾ	قرعاء	Qarʿāʾ	قرعاء	Qara	Qara
QUTQUTANA_438E319N_S_BADI	Badiyat al-Arab	43.82290	31.93660	waystations	etape	al-Quṭquṭānaŧ	ﭐلقطقطانة	al-Quṭquṭānaŧ	ﭐلقطقطانة	al-Qutqutana	al-Qutqutana
QARYATAYN_439E260N_S_BADI	Badiyat al-Arab	43.92995	26.08634	waystations	etape	al-Qaryatayn	ﭐلقريتين	al-Qaryatayn	ﭐلقريتين	al-Qaryatayn	al-Qaryatayn
RUHAYMA_439E318N_S_BADI	Badiyat al-Arab	43.95117	31.85995	waystations	etape	al-Ruhaymaŧ	ﭐلرهيمة	al-Ruhaymaŧ	ﭐلرهيمة	al-Ruhayma	al-Ruhayma
HABIR_439E284N_R_BADI	Badiyat al-Arab	43.99014	28.46139	regions	region	al-Habīr	ﭐلهبير	al-Habīr	ﭐلهبير	al-Habir	al-Habir
MUGHITHA_440E311N_S_BADI	Badiyat al-Arab	44.00938	31.10097	waystations	puits	al-Muġīṯaŧ	ﭐلمغيثة	al-Muġīṯaŧ	ﭐلمغيثة	al-Mughitha	al-Mughitha
UDHAYB_441E314N_S_BADI	Badiyat al-Arab	44.13666	31.49049	villages	localite	al-Uḏayb	ﭐلأذيب	al-Uḏayb	ﭐلأذيب	al-Udhayb	al-Udhayb
NIBAJ_444E263N_S_BADI	Badiyat al-Arab	44.45181	26.35812	waystations	etape	al-Nibāǧ	ﭐلنباج	al-Nibāǧ	ﭐلنباج	al-Nibaj	al-Nibaj
HAFARABUMUSA_459E284N_S_BADI	Badiyat al-Arab	45.92797	28.41584	waystations	etape	Ḥafar Abū Mūsá	حفر أبو موسى	Ḥafar Abū Mūsá	حفر أبو موسى	Hafar Abu Musa	Hafar Abu Musa
QABIS_100E338N_S_BARQ	Barqa	10.08563	33.86603	towns	cite	Qābis	قابس	Qābis	قابس	Qabis	Qabis
FAWWARA_105E335N_S_BARQ	Barqa	10.50881	33.55129	waystations	etape	al-Fawwāraŧ	ﭐلفوارة	al-Fawwāraŧ	ﭐلفوارة	al-Fawwara	al-Fawwara
BARJAMT_116E330N_S_BARQ	Barqa	11.63847	33.05675	waystations	etape	Bārǧamt	بارجمت	Bārǧamt, Abār Daḫt	بارجمت، أبار دخت	Barjamt, Abar Dakht	Barjamt, Abar Dakht
SABRA_124E327N_S_BARQ	Barqa	12.48146	32.78822	towns	cite	Ṣabraŧ	صبرة	Ṣabraŧ	صبرة	Sabra	Sabra
ATRABULUS_131E328N_S_BARQ	Barqa	13.19209	32.87801	towns	cite	Aṭrābulus	أطرابلس	Aṭrābulus, Ṭarābulus	أطرابلس، طرابلس	Atrabulus, Tarabulus	Atrabulus, Tarabulus
WADIRAML_135E327N_S_BARQ	Barqa	13.57504	32.73756	waystations	etape	Wādī al-Raml	وادي ﭐلرمل	Wādī al-Raml	وادي ﭐلرمل	Wadi al-Raml	Wadi al-Raml
ZAWILA_147E257N_S_BARQ	Barqa	14.78841	25.78099	villages	localite	Zawīlaŧ	زويلة	Zawīlaŧ, Zawīlaŧ b. al-Ḫaṭṭ_ab	زويلة، زويلة بن ﭐلخطاب	Zawila, Zawila b. al-Khattab	Zawila, Zawila b. al-Khattab
TAWARGHA_148E319N_S_BARQ	Barqa	14.86251	31.98024	villages	localite	Tawarġaŧ	تورغة	Tawarġaŧ	تورغة	Tawargha	Tawargha
QUSURHASSAN_158E312N_S_BARQ	Barqa	15.87924	31.25883	waystations	etape	Quṣūr Ḥassān	قصور حسان	Quṣūr Ḥassān	قصور حسان	Qusur Hassan	Qusur Hassan
MAGHMADASH_162E311N_S_BARQ	Barqa	16.22169	31.19302	waystations	etape	Maġmadāš	مغمداش	Maġmadāš	مغمداش	Maghmadash	Maghmadash
WADDAN_162E289N_S_BARQ	Barqa	16.28326	28.96493	villages	bourgade?	Waddān	ودان	Waddān	ودان	Waddan	Waddan
WADDAN_162E289N_S_BARQ	Barqa	16.28326	28.96493	villages	oasis	Waddān	ودان	Waddān	ودان	Waddan	Waddan
QARYATAYN_164E311N_O_BARQ	Barqa	16.44486	31.18315	sites	site	al-Qaryatayn	ﭐلقريتين	al-Qaryatayn	ﭐلقريتين	al-Qaryatayn	al-Qaryatayn
SURT_166E310N_S_BARQ	Barqa	16.60839	31.09917	towns	cite	Surt	سرت	Surt	سرت	Surt	Surt
QASRIBADI_172E309N_S_BARQ	Barqa	17.29329	30.94914	waystations	etape	Qaṣr al-ʿIbādī	قصر ﭐلعبادي	Qaṣr al-ʿIbādī, Qabr al-ʿIbādī	قصر ﭐلعبادي، قبر ﭐلعبادي	Qasr al-Ibadi, Qabr al-Ibadi	Qasr al-Ibadi, Qabr al-Ibadi
YAHUDIYYATAYN_177E307N_S_BARQ	Barqa	17.72231	30.77615	waystations	etape	al-Yahūdiyyatayn	ﭐليهوديتين	al-Yahūdiyyatayn	ﭐليهوديتين	al-Yahudiyyatayn	al-Yahudiyyatayn
QASRATISH_181E305N_S_BARQ	Barqa	18.19751	30.54115	waystations	etape	Qaṣr al-ʿAṭiš	قصر ﭐلعطش	Qaṣr al-ʿAṭiš	قصر ﭐلعطش	Qasr al-Atish	Qasr al-Atish
SABKHAMANHUSHA_186E297N_R_BARQ	Barqa	18.63423	29.78891	regions	region	Sabḫaŧ Manhūšā	سبخة منهوشا	Sabḫaŧ Manhūšā	سبخة منهوشا	Sabkha Manhusha	Sabkha Manhusha
BARNIQ_200E321N_S_BARQ	Barqa	20.08482	32.11419	towns	cite	Barnīq	برنيق	Barnīq	برنيق	Barniq	Barniq
AJDABIYYA_202E304N_S_BARQ	Barqa	20.20218	30.46697	towns	cite	Aǧdābiyyaŧ	أجدابية	Aǧdābiyyaŧ	أجدابية	Ajdabiyya	Ajdabiyya
SULUQ_202E314N_S_BARQ	Barqa	20.24835	31.40180	waystations	etape	Sulūq	سلوق	Sulūq	سلوق	Suluq	Suluq
BARQA_208E323N_S_BARQ	Barqa	20.84475	32.37576	capitals	capitale	Barqaŧ	برقة	Barqaŧ	برقة	Barqa	Barqa
BARQA_208E323N_R_BARQ	Barqa	20.84475	32.37576	regions	circon	Barqaŧ	برقة	Barqaŧ	برقة	Barqa	Barqa
AWJILA_212E289N_S_BARQ	Barqa	21.21413	28.95651	villages	oasis	Awǧilaŧ	أوجلة	Awǧilaŧ	أوجلة	Awjila	Awjila
HALIMAN_222E327N_S_BARQ	Barqa	22.20300	32.77902	waystations	etape	Ḥalīmān	حليمان	Ḥalīmān, Ǧubb Ḥalīmān	حليمان، جب حليمان	Haliman, Jubb Haliman	Haliman, Jubb Haliman
WADIMAKHIL_226E322N_W_BARQ	Barqa	22.62048	32.26480	waters	wadi	Wādī Maḫīl	وادي مخيل	Wādī Maḫīl	وادي مخيل	Wadi Makhil	Wadi Makhil
JUBBMAYDAN_233E321N_S_BARQ	Barqa	23.31692	32.18179	waystations	etape	Ǧubb al-Maydān	جب ﭐلميدان	Ǧubb al-Maydān, Ǧubb al-Maydaʿān	جب ﭐلميدان، جب ﭐلميدعان	Jubb al-Maydan, Jubb al-Maydaan	Jubb al-Maydan, Jubb al-Maydaan
JIYADSAGHIR_239E319N_S_BARQ	Barqa	23.96719	31.99027	waystations	etape	Ǧiyād al-Ṣaġīr	جياد ﭐلصغير	Ǧiyād al-Ṣaġīr	جياد ﭐلصغير	Jiyad al-Saghir	Jiyad al-Saghir
HAYYABDALLAH_244E318N_S_BARQ	Barqa	24.49433	31.87271	waystations	etape	Ḥayy ʿAbd Allãh	حي عبد ﭐلله	Ḥayy ʿAbd Allãh	حي عبد ﭐلله	Hayy Abd Allah	Hayy Abd Allah
MARJSHAYKH_248E316N_S_BARQ	Barqa	24.83486	31.67644	waystations	etape	Marǧ al-Šayḫ	مرج ﭐلشيخ	Marǧ al-Šayḫ	مرج ﭐلشيخ	Marj al-Shaykh	Marj al-Shaykh
AQABA_251E314N_S_BARQ	Barqa	25.18308	31.42889	waystations	etape	al-ʿAqabaŧ	ﭐلعقبة	al-ʿAqabaŧ	ﭐلعقبة	al-Aqaba	al-Aqaba
KHARAIBABUHALIMA_255E314N_S_BARQ	Barqa	25.51014	31.41576	waystations	etape	Ḫarāʾib Abū Ḥalīmaŧ	خرائب أبو حليمة	Ḫarāʾib Abū Ḥalīmaŧ	خرائب أبو حليمة	Kharaib Abu Halima	Kharaib Abu Halima
KHIRBAQAWM_261E313N_S_BARQ	Barqa	26.11423	31.35376	waystations	etape	Ḫirbaŧ al-Qawm	خربة ﭐلقوم	Ḫirbaŧ al-Qawm	خربة ﭐلقوم	Khirba al-Qawm	Khirba al-Qawm
QASRSHAMMAS_263E313N_S_BARQ	Barqa	26.37011	31.32418	waystations	etape	Qaṣr al-Šammās	قصر ﭐلشماس	Qaṣr al-Šammās	قصر ﭐلشماس	Qasr al-Shammas	Qasr al-Shammas
SIKKAHAMMAM_267E311N_S_BARQ	Barqa	26.77604	31.19426	waystations	etape	Sikkaŧ al-Ḥammām	سكة ﭐلحمام	Sikkaŧ al-Ḥammām	سكة ﭐلحمام	Sikka al-Hammam	Sikka al-Hammam
JUBBAWSAJ_273E310N_S_BARQ	Barqa	27.30318	31.04479	waystations	etape	Ǧubb al-ʿAwsaǧ	جب ﭐلعوسج	Ǧubb al-ʿAwsaǧ	جب ﭐلعوسج	Jubb al-Awsaj	Jubb al-Awsaj
RAMADA_276E310N_S_BARQ	Barqa	27.61485	31.02336	towns	cite	Ramādaŧ	رمادة	Ramādaŧ	رمادة	Ramada	Ramada
KANAISHADID_279E309N_S_BARQ	Barqa	27.94768	30.91449	waystations	etape	Kanāʾis al-Ḥadīd	كنائس ﭐلحديد	Kanāʾis al-Ḥadīd, Kanāʾis al-Ḥarīr	كنائس ﭐلحديد، كنائس ﭐلحرير	Kanais al-Hadid, Kanais al-Harir	Kanais al-Hadid, Kanais al-Harir
TAHUNA_283E308N_S_BARQ	Barqa	28.30167	30.84844	waystations	etape	al-Ṭaḥūnaŧ	ﭐلطحونة	al-Ṭaḥūnaŧ	ﭐلطحونة	al-Tahuna	al-Tahuna
HANIYYARUM_288E308N_S_BARQ	Barqa	28.85190	30.80549	waystations	etape	Ḥaniyyaŧ al-Rūm	حنية ﭐلروم	Ḥaniyyaŧ al-Rūm, Quṣūr al-Rūm	حنية ﭐلروم، قصور ﭐلروم	Haniyya al-Rum, Qusur al-Rum	Haniyya al-Rum, Qusur al-Rum
DHATHUMAM_293E308N_S_BARQ	Barqa	29.30208	30.86496	towns	cite	Ḏāt al-Ḥumām	ذات ﭐلحمام	Ḏāt al-Ḥumām, Ḏāt al-Ḥammām	ذات ﭐلحمام، ذات ﭐلحمام	Dhat al-Humam, Dhat al-Hammam	Dhat al-Humam, Dhat al-Hammam
GHADAMIS_094E301N_S_BARQ	Barqa	9.47597	30.12935	towns	cite	Ġadāmis	غدامس	Ġadāmis	غدامس	Ghadamis	Ghadamis
BARWAN_485E375N_S_DAYL	Daylam	48.55981	37.57057	towns	cite	Barwān	بروان	Barwān	بروان	Barwan	Barwan
NAHRISBIDHRUDH_488E369N_W_DAYL	Daylam	48.83940	36.97532	waters	riviere	Nahr Isbīḏrūḏ	نهر إسبيذروذ	Nahr Isbīḏrūḏ, Nahr Sabīḏrūḏ	نهر إسبيذروذ، نهر سبيذروذ	Nahr Isbidhrudh, Nahr Sabidhrudh	Nahr Isbidhrudh, Nahr Sabidhrudh
KUHANRUDH_490E377N_S_DAYL	Daylam	49.00372	37.79153	waystations	port/etape	Kuhanrūḏ	كهنروذ	Kuhanrūḏ	كهنروذ	Kuhanrudh	Kuhanrudh
KHASHM_491E374N_S_DAYL	Daylam	49.18674	37.48626	towns	cite	Ḫašm	خشم	Ḫašm	خشم	Khashm	Khashm
JIL_496E371N_R_DAYL	Daylam	49.65635	37.13924	regions	region	Ǧīl	جيل	Ǧīl, Ǧīlān	جيل، جيلان	Jil, Jilan	Jil, Jilan
NAHRISBIDHRUDH_496E369N_W_DAYL	Daylam	49.67893	36.93549	waters	riviere	Nahr Isbīḏrūḏ	نهر إسبيذروذ	Nahr Isbīḏrūḏ, Nahr Sabīḏrūḏ	نهر إسبيذروذ، نهر سبيذروذ	Nahr Isbidhrudh, Nahr Sabidhrudh	Nahr Isbidhrudh, Nahr Sabidhrudh
NAHRTALAQANRUDH_501E365N_W_DAYL	Daylam	50.19216	36.52902	waters	riviere	Nahr Ṭālaqānrūḏ	نهر طالقانروذ	Nahr Ṭālaqānrūḏ	نهر طالقانروذ	Nahr Talaqanrudh	Nahr Talaqanrudh
DAYLAMAN_505E366N_R_DAYL	Daylam	50.52548	36.69592	regions	region	Daylamān	ديلمان	Daylamān, al-Daylam	ديلمان، ﭐلديلم	Daylaman, al-Daylam	Daylaman, al-Daylam
TALAQAN_508E361N_R_DAYL	Daylam	50.84322	36.18658	regions	region	Ṭalaqān	طلقان	Ṭalaqān	طلقان	Talaqan	Talaqan
TALAQAN_508E361N_S_DAYL	Daylam	50.84322	36.18658	towns	cite	Ṭalaqān	طلقان	Ṭalaqān	طلقان	Talaqan	Talaqan
KALAR_510E364N_S_DAYL	Daylam	51.07686	36.49897	towns	cite	Kalār	كلار	Kalār	كلار	Kalar	Kalar
SAIDABADH_513E363N_S_DAYL	Daylam	51.35722	36.39749	towns	cite	Saʿīdābāḏ	سعيداباذ	Saʿīdābāḏ	سعيداباذ	Saidabadh	Saidabadh
SHALUS_514E366N_S_DAYL	Daylam	51.45535	36.60408	towns	cite	Šālūs	شالوس	Šālūs, Sālūs	شالوس، سالوس	Shalus, Salus	Shalus, Salus
JABALRUBANJ_516E360N_O_DAYL	Daylam	51.63759	36.03180	sites	mont	Ǧabal Rūbanǧ	جبل روبنج	Ǧabal Rūbanǧ, Ruyanǧ	جبل روبنج، رينج	Jabal Rubanj, Ruyanj	Jabal Rubanj, Ruyanj
RUYAN_517E363N_R_DAYL	Daylam	51.71080	36.36237	regions	region	al-Rūyān	ﭐلرويان	al-Rūyān	ﭐلرويان	al-Ruyan	al-Ruyan
RUYAN_517E363N_S_DAYL	Daylam	51.71080	36.36237	towns	cite	al-Rūyān	ﭐلرويان	al-Rūyān	ﭐلرويان	al-Ruyan	al-Ruyan
AFRIDHIN_517E354N_S_DAYL	Daylam	51.77466	35.42345	villages	village	Afrīḏīn	أفريذين	Afrīḏīn	أفريذين	Afridhin	Afridhin
NATIL_519E364N_S_DAYL	Daylam	51.91951	36.47768	towns	cite	Nātil	ناتل	Nātil	ناتل	Natil	Natil
NAMAHAND_519E357N_S_DAYL	Daylam	51.92730	35.72749	waystations	etape	Nāmahand	نامهند	Nāmahand	نامهند	Namahand	Namahand
KAHDA_520E353N_S_DAYL	Daylam	52.04412	35.31676	waystations	etape	Kahdaŧ	كهدة	Kahdaŧ, Kahandaŧ, Kasb	كهدة، كهندة، كسب	Kahda, Kahanda, Kasb	Kahda, Kahanda, Kasb
SHALANBA_520E356N_S_DAYL	Daylam	52.04723	35.68449	towns	cite	Šalanbaŧ	شلنبة	Šalanbaŧ	شلنبة	Shalanba	Shalanba
BALUR_520E358N_S_DAYL	Daylam	52.06670	35.81911	waystations	etape	Balūr	بلور	Balūr, Bulūr	بلور، بلور	Balur, Bulur	Balur, Bulur
ASAK_522E358N_S_DAYL	Daylam	52.21623	35.87340	waystations	etape	Asak	أسك	Asak, Ašk	أسك، أشك	Asak, Ashk	Asak, Ashk
ALHAM_522E365N_S_DAYL	Daylam	52.23414	36.56405	towns	cite	Alham	ألهم	Alham	ألهم	Alham	Alham
KHUWAR_524E352N_S_DAYL	Daylam	52.40859	35.26209	towns	canton	al-Ḫuwār	ﭐلخوار	al-Ḫuwār	ﭐلخوار	al-Khuwar	al-Khuwar
AMUL_524E364N_S_DAYL	Daylam	52.40859	36.42256	capitals	capitale	Āmul	آمل	Āmul	آمل	Amul	Amul
MILA_525E364N_S_DAYL	Daylam	52.55267	36.47080	towns	cite	Mīlaŧ	ميلة	Mīlaŧ	ميلة	Mila	Mila
JABALQARIN_525E360N_O_DAYL	Daylam	52.55968	36.01794	sites	mont	Ǧabal Qārīn	جبل قارين	Ǧabal Qārīn	جبل قارين	Jabal Qarin	Jabal Qarin
TABARISTAN_526E363N_R_DAYL	Daylam	52.60329	36.34732	regions	circon	Ṭabaristān	طبرستان	Ṭabaristān	طبرستان	Tabaristan	Tabaristan
QARYAMILH_526E352N_S_DAYL	Daylam	52.63600	35.26209	villages	localite	Qaryaŧ al-Milḥ	قرية ﭐلملح	Qaryaŧ al-Milḥ	قرية ﭐلملح	Qarya al-Milh	Qarya al-Milh
MAMATIR_527E365N_S_DAYL	Daylam	52.74659	36.51713	towns	cite	Māmaṭīr	مامطير	Māmaṭīr	مامطير	Mamatir	Mamatir
SHIHMAR_528E361N_S_DAYL	Daylam	52.86652	36.16111	towns	cite	Šihmār	شهمار	Šihmār, Sihmār	شهمار، سهمار	Shihmar, Sihmar	Shihmar, Sihmar
FADUSBAN_529E356N_R_DAYL	Daylam	52.96387	35.61266	regions	region	Fādūsbān	فادوسبان	Fādūsbān, Qādūstān, Qādūsiyān	فادوسبان، قادوستان، قادوسيان	Fadusban, Qadustan, Qadusiyan	Fadusban, Qadustan, Qadusiyan
RASKALB_530E353N_S_DAYL	Daylam	53.07601	35.37647	villages	localite	Raʾs al-Kalb	رأس ﭐلكلب	Raʾs al-Kalb	رأس ﭐلكلب	Ras al-Kalb	Ras al-Kalb
SIMNAN_534E354N_S_DAYL	Daylam	53.40856	35.49513	towns	cite	Simnān	سمنان	Simnān	سمنان	Simnan	Simnan
MIHRAWAN_536E366N_S_DAYL	Daylam	53.69593	36.68468	villages	localite	Mihrawān	مهروان	Mihrawān	مهروان	Mihrawan	Mihrawan
RIBATALIYYABADH_537E357N_S_DAYL	Daylam	53.73487	35.74424	waystations	ribat	Rībāṭ ʿAliyyābāḏ	ريباط علياباذ	Rībāṭ ʿAliyyābāḏ	ريباط علياباذ	Ribat Aliyyabadh	Ribat Aliyyabadh
JARMJUWI_540E359N_S_DAYL	Daylam	54.04249	35.97336	waystations	etape	Ǧarmǧuwī	جرمجوي	Ǧarmǧuwī	جرمجوي	Jarmjuwi	Jarmjuwi
ABASKUN_540E370N_S_DAYL	Daylam	54.04327	37.02772	towns	cite/port	Ābaskūn	آبسكون	Ābaskūn	آبسكون	Abaskun	Abaskun
TAMISHA_540E367N_S_DAYL	Daylam	54.05573	36.73120	towns	cite	Ṭamīšaŧ	طميشة	Ṭamīšaŧ, Ṭamīsaŧ	طميشة، طميسة	Tamisha, Tamisa	Tamisha, Tamisa
QUMIS_541E361N_R_DAYL	Daylam	54.13205	36.11206	regions	region	Qūmis	قومس	Qūmis	قومس	Qumis	Qumis
NAMIYA_543E367N_S_DAYL	Daylam	54.32519	36.77488	towns	cite	Nāmiyaŧ	نامية	Nāmiyaŧ	نامية	Namiya	Namiya
DAMGHAN_543E361N_S_DAYL	Daylam	54.37503	36.13093	capitals	capitale	al-Damġān	ﭐلدمغان	al-Damġān	ﭐلدمغان	al-Damghan	al-Damghan
ASTARABADH_544E367N_S_DAYL	Daylam	54.47005	36.78860	towns	cite	Astārabāḏ	أستارباذ	Astārabāḏ	أستارباذ	Astarabadh	Astarabadh
RIBATALI_545E372N_S_DAYL	Daylam	54.51366	37.22611	waystations	ribat	Ribāṭ ʿAlī	رباط علي	Ribāṭ ʿAlī	رباط علي	Ribat Ali	Ribat Ali
RIBATDIHISTAN_546E382N_S_DAYL	Daylam	54.61471	38.26671	waystations	ribat	Ribāṭ Dihistān	رباط دهستان	Ribāṭ Dihistān	رباط دهستان	Ribat Dihistan	Ribat Dihistan
BAYLAMAK_547E378N_S_DAYL	Daylam	54.72705	37.88855	waystations	etape	Baylamak	بيلمك	Baylamak, Salmak	بيلمك، سلمك	Baylamak, Salmak	Baylamak, Salmak
RIBATAMIR_547E375N_S_DAYL	Daylam	54.76443	37.58399	waystations	ribat	Ribāṭ al-Amīr	رباط ﭐلأمير	Ribāṭ al-Amīr	رباط ﭐلأمير	Ribat al-Amir	Ribat al-Amir
HADDADA_548E362N_S_DAYL	Daylam	54.80181	36.28520	villages	localite	al-Ḥaddādaŧ	ﭐلحدادة	al-Ḥaddādaŧ	ﭐلحدادة	al-Haddada	al-Haddada
RIBATHAFS_548E368N_S_DAYL	Daylam	54.88904	36.81760	waystations	ribat	Ribāṭ Ḥafṣ	رباط حفص	Ribāṭ Ḥafṣ	رباط حفص	Ribat Hafs	Ribat Hafs
JURJAN_549E373N_R_DAYL	Daylam	54.99028	37.33269	regions	region	Ǧurǧān	جرجان	Ǧurǧān	جرجان	Jurjan	Jurjan
BISTAM_550E364N_S_DAYL	Daylam	55.07205	36.45952	towns	cite	Bisṭām	بسطام	Bisṭām	بسطام	Bistam	Bistam
BADHASH_551E363N_S_DAYL	Daylam	55.17875	36.33289	waystations	etape	Baḏaš	بذش	Baḏaš	بذش	Badhash	Badhash
SHAHRASTAN_552E371N_S_DAYL	Daylam	55.20600	37.19091	metropoles	metropole	Šahrastān	شهرستان	Šahrastān, Ǧurǧān	شهرستان، جرجان	Shahrastan, Jurjan	Shahrastan, Jurjan
JURJAN_552E371N_R_DAYL	Daylam	55.20600	37.19091	regions	region	Ǧurǧān	جرجان	Ǧurǧān	جرجان	Jurjan	Jurjan
ZIRADABADH_553E366N_S_DAYL	Daylam	55.30802	36.65798	waystations	etape	Ziradābāḏ	زرداباذ	Ziradābāḏ, Zirdābāḏ	زرداباذ، زرداباذ	Ziradabadh, Zirdabadh	Ziradabadh, Zirdabadh
NAHRKHURMARUDH_553E370N_W_DAYL	Daylam	55.38357	37.06455	waters	riviere	Nahr Ḫurmārūḏ	نهر خرماروذ	Nahr Ḫurmārūḏ	نهر خرماروذ	Nahr Khurmarudh	Nahr Khurmarudh
DIHISTAN_556E390N_R_DAYL	Daylam	55.63466	39.09457	regions	region	Dihistān	دهستان	Dihistān	دهستان	Dihistan	Dihistan
MURJAN_556E363N_S_DAYL	Daylam	55.67094	36.39341	waystations	etape	al-Murǧān	ﭐلمرجان	al-Murǧān	ﭐلمرجان	al-Murjan	al-Murjan
AKHUR_557E391N_S_DAYL	Daylam	55.71277	39.19825	capitals	cheflieu	Āḫur	آخر	Āḫur	آخر	Akhur	Akhur
BIYAR_558E360N_S_DAYL	Daylam	55.86992	36.05824	towns	cite	Biyār	بيار	Biyār	بيار	Biyar	Biyar
DINAZARI_559E375N_S_DAYL	Daylam	55.99881	37.57458	waystations	etape	Dīnāzārī	دينازاري	Dīnāzārī	دينازاري	Dinazari	Dinazari
HAFDAR_561E363N_S_DAYL	Daylam	56.13276	36.36629	waystations	etape	Hafdar	هفدر	Hafdar	هفدر	Hafdar	Hafdar
AJGH_569E375N_S_DAYL	Daylam	56.95205	37.51437	villages	localite	Aǧġ	أجغ	Aǧġ	أجغ	Ajgh	Ajgh
RIBATABUSAHL_574E401N_S_DAYL	Daylam	57.45149	40.18649	waystations	ribat	Ribāṭ Abū Sahl	رباط أبو سهل	Ribāṭ Abū Sahl	رباط أبو سهل	Ribat Abu Sahl	Ribat Abu Sahl
FARFARUN_282E269N_R_EGYP	Egypt	28.20107	26.96368	regions	region	Farfārūn	فرفارون	Farfārūn	فرفارون	Farfarun	Farfarun
DAKHILA_287E255N_R_EGYP	Egypt	28.73902	25.54178	regions	region	al-Dāḫilaŧ	ﭐلداخلة	al-Dāḫilaŧ	ﭐلداخلة	al-Dakhila	al-Dakhila
QASR_288E256N_S_EGYP	Egypt	28.83405	25.67032	villages	localite	al-Qaṣr	ﭐلقصر	al-Qaṣr	ﭐلقصر	al-Qasr	al-Qasr
BANHASA_288E282N_S_EGYP	Egypt	28.83711	28.28725	villages	oasis	Banhasá	بنهسى	Banhasá	بنهسى	Banhasa	Banhasa
QALAMUN_289E254N_S_EGYP	Egypt	28.92294	25.44771	villages	localite	Qalamūn	قلمون	Qalamūn	قلمون	Qalamun	Qalamun
WAHAT_294E265N_R_EGYP	Egypt	29.46855	26.52400	regions	region	al-Wāḥāt	ﭐلواحات	al-Wāḥāt	ﭐلواحات	al-Wahat	al-Wahat
BUMINA_297E309N_S_EGYP	Egypt	29.71572	30.93264	waystations	etape	Būmīnaŧ	بومينة	Būmīnaŧ, Būmīná	بومينة، بومينى	Bumina, Bumina	Bumina, Bumina
ISKANDARIYYA_299E311N_S_EGYP	Egypt	29.90981	31.19490	capitals	capitale	al-Iskandariyyaŧ	ﭐلإسكندرية	al-Iskandariyyaŧ	ﭐلإسكندرية	al-Iskandariyya	al-Iskandariyya
BUHAYRAMARYUT_299E311N_W_EGYP	Egypt	29.91455	31.12142	waters	lac	Buḥayraŧ Maryūṭ	بحيرة مريوط	Buḥayraŧ Maryūṭ	بحيرة مريوط	Buhayra Maryut	Buhayra Maryut
KARYUN_301E311N_S_EGYP	Egypt	30.13142	31.14286	towns	cite	al-Karyūn	ﭐلكريون	al-Karyūn, Kiryawn	ﭐلكريون، كريون	al-Karyun, Kiryawn	al-Karyun, Kiryawn
KHALIJISKANDARIYYA_301E311N_W_EGYP	Egypt	30.15818	31.10144	waters	canal	Ḫalīǧ al-Iskandariyyaŧ	خليج ﭐلإسكندرية	Ḫalīǧ al-Iskandariyyaŧ	خليج ﭐلإسكندرية	Khalij al-Iskandariyya	Khalij al-Iskandariyya
JANADIL_302E196N_O_EGYP	Egypt	30.25325	19.63029	sites	cataracte	al-Ǧanādil	ﭐلجنادل	al-Ǧanādil	ﭐلجنادل	al-Janadil	al-Janadil
BAHRRUM_302E322N_W_EGYP	Egypt	30.28697	32.20303	waters	mer	Baḥr al-Rūm	بحر ﭐلروم	Baḥr al-Rūm	بحر ﭐلروم	Bahr al-Rum	Bahr al-Rum
BARSIQ_302E310N_S_EGYP	Egypt	30.29934	31.08146	towns	cite	Barsīq	برسيق	Barsīq	برسيق	Barsiq	Barsiq
MALIDAS_303E312N_R_EGYP	Egypt	30.37989	31.24231	regions	region	al-Malīdās	ﭐلمليداس	al-Malīdās, al-Malaydis	ﭐلمليداس، ﭐلمليدس	al-Malidas, al-Malaydis	al-Malidas, al-Malaydis
RASHID_303E314N_S_EGYP	Egypt	30.37989	31.41298	towns	cite	Rašīd	رشيد	Rašīd	رشيد	Rashid	Rashid
HAWFGHARBI_304E307N_R_EGYP	Egypt	30.43738	30.75268	regions	region	al-Ḥawf al-Ġarbī	ﭐلحوف ﭐلغربي	al-Ḥawf al-Ġarbī	ﭐلحوف ﭐلغربي	al-Hawf al-Gharbi	al-Hawf al-Gharbi
QARTASA_304E310N_S_EGYP	Egypt	30.44108	31.05659	villages	localite	Qarṭasā	قرطسا	Qarṭasā	قرطسا	Qartasa	Qartasa
DAYRUT_304E312N_S_EGYP	Egypt	30.44535	31.25059	towns	cite	Dayrūṭ	ديروط	Dayrūṭ	ديروط	Dayrut	Dayrut
DAMANHUR_304E310N_S_EGYP	Egypt	30.45872	31.03855	towns	cite	Damanhūr	دمنهور	Damanhūr	دمنهور	Damanhur	Damanhur
BALHIB_304E312N_S_EGYP	Egypt	30.46299	31.28513	towns	cite	Balhīb	بلهيب	Balhīb	بلهيب	Balhib	Balhib
SANBADHA_304E311N_S_EGYP	Egypt	30.47267	31.19071	towns	cite	Sanbāḏaŧ	سنباذة	Sanbāḏaŧ	سنباذة	Sanbadha	Sanbadha
SANDIYUN_304E312N_S_EGYP	Egypt	30.47608	31.25387	villages	localite	Sandiyūn	سنديون	Sandiyūn	سنديون	Sandiyun	Sandiyun
MASIL_304E311N_R_EGYP	Egypt	30.47836	31.11959	regions	region	Maṣīl	مصيل	Maṣīl	مصيل	Masil	Masil
FISHA_304E311N_S_EGYP	Egypt	30.49999	31.13129	villages	village	Fīšaŧ	فيشة	Fīšaŧ	فيشة	Fisha	Fisha
BAYRIS_305E245N_S_EGYP	Egypt	30.50461	24.59152	towns	cite	Bayrīs	بيريس	Bayrīs	بيريس	Bayris	Bayris
FUWA_305E312N_S_EGYP	Egypt	30.50654	31.22370	towns	cite	Fuwaŧ	فوة	Fuwaŧ	فوة	Fuwa	Fuwa
DANSHAL_305E309N_S_EGYP	Egypt	30.51137	30.95938	villages	localite	Danšāl	دنشال	Danšāl	دنشال	Danshal	Danshal
KHARIJA_305E249N_R_EGYP	Egypt	30.51687	24.98738	regions	region	al-Ḫāriǧaŧ	ﭐلخارجة	al-Ḫāriǧaŧ	ﭐلخارجة	al-Kharija	al-Kharija
BADAQUN_305E308N_R_EGYP	Egypt	30.52845	30.89835	regions	region	al-Badaqūn	ﭐلبدقون	al-Badaqūn	ﭐلبدقون	al-Badaqun	al-Badaqun
SHIRAK_305E309N_R_EGYP	Egypt	30.57342	30.99062	regions	region	al-Širāk	ﭐلشراك	al-Širāk	ﭐلشراك	al-Shirak	al-Shirak
MAHALLAABUKHURASHA_306E310N_S_EGYP	Egypt	30.61583	31.02501	villages	village	Maḥallaŧ Abū Ḫurāšaŧ	محلة أبو خراشة	Maḥallaŧ Abū Ḫurāšaŧ	محلة أبو خراشة	Mahalla Abu Khurasha	Mahalla Abu Khurasha
IKHNA_306E314N_R_EGYP	Egypt	30.65681	31.46786	regions	region	Iḫnā	إخنا	Iḫnā	إخنا	Ikhna	Ikhna
BAHNASA_306E286N_R_EGYP	Egypt	30.66449	28.60073	regions	region	Bahnasá	بهنسى	Bahnasá	بهنسى	Bahnasa	Bahnasa
KHARIBTA_306E307N_R_EGYP	Egypt	30.66535	30.75281	regions	district	Ḫaribtā	خربتا	Ḫaribtā	خربتا	Kharibta	Kharibta
FARNWA_306E309N_S_EGYP	Egypt	30.66905	30.98720	villages	localite	Farnwaŧ	فرنوة	Farnwaŧ	فرنوة	Farnwa	Farnwa
TAHA_306E282N_S_EGYP	Egypt	30.69125	28.27313	towns	cite	Ṭaḥā	طحا	Ṭaḥā	طحا	Taha	Taha
SAFIYYA_306E310N_S_EGYP	Egypt	30.69950	31.04306	villages	localite	al-Ṣāfiyyaŧ	ﭐلصافية	al-Ṣāfiyyaŧ	ﭐلصافية	al-Safiyya	al-Safiyya
FAYYUM_306E294N_S_EGYP	Egypt	30.69978	29.43447	capitals	capitale	al-Fayyūm	ﭐلفيوم	al-Fayyūm	ﭐلفيوم	al-Fayyum	al-Fayyum
TANDA_307E277N_S_EGYP	Egypt	30.70110	27.76484	towns	cite	Tandaŧ	تندة	Tandaŧ	تندة	Tanda	Tanda
DAYYAY_307E310N_S_EGYP	Egypt	30.70519	31.01916	towns	cite	Dayyāy	دياي	Dayyāy	دياي	Dayyay	Dayyay
MAHALLANUQAYDA_307E307N_S_EGYP	Egypt	30.70804	30.78411	villages	village	Maḥallaŧ Nuqaydaŧ	محلة نقيدة	Maḥallaŧ Nuqaydaŧ	محلة نقيدة	Mahalla Nuqayda	Mahalla Nuqayda
NASTARAWA_307E314N_S_EGYP	Egypt	30.70804	31.48776	towns	cite	Nastarāwaŧ	نستراوة	Nastarāwaŧ, Nastarāw	نستراوة، نستراو	Nastarawa, Nastaraw	Nastarawa, Nastaraw
SANHUR_307E311N_S_EGYP	Egypt	30.70832	31.16283	towns	cite	Sanhūr	سنهور	Sanhūr	سنهور	Sanhur	Sanhur
SHABAS_307E310N_R_EGYP	Egypt	30.72312	31.08986	regions	district	Šabās	شباس	Šabās	شباس	Shabas	Shabas
SHABUR_307E308N_S_EGYP	Egypt	30.73365	30.80318	villages	localite	Šābūr	شابور	Šābūr	شابور	Shabur	Shabur
RAFIQA_307E306N_S_EGYP	Egypt	30.73593	30.69470	villages	localite	al-Rāfiqaŧ	ﭐلرافقة	al-Rāfiqaŧ	ﭐلرافقة	al-Rafiqa	al-Rafiqa
DUNQALA_307E180N_S_EGYP	Egypt	30.73756	18.04347	towns	cite	Dunqalaŧ	دنقلة	Dunqalaŧ, Dunqulaŧ, Dumqulaŧ	دنقلة، دنقلة، دمقلة	Dunqala, Dunqula, Dumqula	Dunqala, Dunqula, Dumqula
SA_307E309N_S_EGYP	Egypt	30.73849	30.95914	villages	localite	Ṣāʾ	صاء	Ṣāʾ	صاء	Sa	Sa
USHMUNAYN_307E278N_S_EGYP	Egypt	30.75576	27.85616	towns	cite	al-Ušmūnayn	ﭐلأشمونين	al-Ušmūnayn	ﭐلأشمونين	al-Ushmunayn	al-Ushmunayn
KUMSHARIK_307E306N_S_EGYP	Egypt	30.75642	30.63742	waystations	etape	Kūm Šarīk	كوم شريك	Kūm Šarīk	كوم شريك	Kum Sharik	Kum Sharik
BABIJ_307E308N_S_EGYP	Egypt	30.75642	30.87466	towns	cite	Babīǧ	ببيج	Babīǧ	ببيج	Babij	Babij
QAYS_307E285N_S_EGYP	Egypt	30.78687	28.52624	towns	cite	al-Qays	ﭐلقيس	al-Qays	ﭐلقيس	al-Qays	al-Qays
BISTAMA_307E306N_S_EGYP	Egypt	30.78887	30.62076	towns	cite	Bistāmaŧ	بستامة	Bistāmaŧ	بستامة	Bistama	Bistama
TANUB_307E306N_S_EGYP	Egypt	30.78944	30.67267	villages	localite	Ṭanūb	طنوب	Ṭanūb, Ṭunūb	طنوب، طنوب	Tanub, Tunub	Tanub, Tunub
IKHNA_307E315N_S_EGYP	Egypt	30.79000	31.51979	towns	cite?	Iḫnā	إخنا	Iḫnā, Aǧnā	إخنا، أجنا	Ikhna, Ajna	Ikhna, Ajna
BUHAYRABURULLUS_308E314N_W_EGYP	Egypt	30.80708	31.45960	waters	lac	Buḥayraŧ al-Burullus	بحيرة ﭐلبرلس	Buḥayraŧ al-Burullus	بحيرة ﭐلبرلس	Buhayra al-Burullus	Buhayra al-Burullus
TARNUT_308E304N_S_EGYP	Egypt	30.81078	30.40094	villages	localite	Tarnūṭ	ترنوط	Tarnūṭ	ترنوط	Tarnut	Tarnut
QULAYBUMMAL_308E308N_S_EGYP	Egypt	30.82245	30.86818	villages	localite	Qulayb al-`Ummāl	قليب ﭐلعمال	Qulayb al-`Ummāl	قليب ﭐلعمال	Qulayb al-Ummal	Qulayb al-Ummal
TIDA_308E312N_R_EGYP	Egypt	30.82700	31.23866	regions	district	Tīdaŧ	تيدة	Tīdaŧ	تيدة	Tida	Tida
FAYYUM_308E293N_R_EGYP	Egypt	30.84266	29.35921	regions	territoire	al-Fayyūm	ﭐلفيوم	al-Fayyūm	ﭐلفيوم	al-Fayyum	al-Fayyum
ANSINA_308E279N_S_EGYP	Egypt	30.84685	27.90125	towns	cite	Anṣinā	أنصنا	Anṣinā	أنصنا	Ansina	Ansina
MAHALLASURAD_308E309N_S_EGYP	Egypt	30.85120	30.96963	villages	localite	Maḥallaŧ Ṣurad	محلة صرد	Maḥallaŧ Ṣurad	محلة صرد	Mahalla Surad	Mahalla Surad
SUMUSTA_308E289N_S_EGYP	Egypt	30.88762	28.96006	towns	cite	Sumusṭā	سمسطا	Sumusṭā	سمسطا	Sumusta	Sumusta
JURASIYYAT_308E303N_S_EGYP	Egypt	30.89161	30.34164	villages	village	al-Ǧurasiyyāt	ﭐلجرسيات	al-Ǧurasiyyāt	ﭐلجرسيات	al-Jurasiyyat	al-Jurasiyyat
AFRAHUN_309E311N_R_EGYP	Egypt	30.91239	31.19144	regions	region	al-Afrāḥūn	ﭐلأفراحون	al-Afrāḥūn	ﭐلأفراحون	al-Afrahun	al-Afrahun
MANUF_309E304N_S_EGYP	Egypt	30.91950	30.45505	towns	cite	Manūf	منوف	Manūf	منوف	Manuf	Manuf
MAHALLAMAHRUM_309E307N_S_EGYP	Egypt	30.92349	30.79572	towns	cite	Maḥallaŧ al-Maḥrūm	محلة ﭐلمحروم	Maḥallaŧ al-Maḥrūm	محلة ﭐلمحروم	Mahalla al-Mahrum	Mahalla al-Mahrum
SAKHA_309E310N_S_EGYP	Egypt	30.92519	31.08645	towns	cite	Ṣaḫā	صخا	Ṣaḫā	صخا	Sakha	Sakha
FISHAIBNSULAYM_309E307N_S_EGYP	Egypt	30.92633	30.76345	villages	village	Fīšaŧ Ibn Sulaym	فيشة إبن سليم	Fīšaŧ Ibn Sulaym	فيشة إبن سليم	Fisha Ibn Sulaym	Fisha Ibn Sulaym
BUNDARIYYA_309E307N_S_EGYP	Egypt	30.92804	30.72039	towns	cite	al-Bundāriyyaŧ	ﭐلبندارية	al-Bundāriyyaŧ	ﭐلبندارية	al-Bundariyya	al-Bundariyya
TUWWA_309E306N_R_EGYP	Egypt	30.93316	30.68075	regions	district	Ṭuwwaŧ	طوة	Ṭuwwaŧ	طوة	Tuwwa	Tuwwa
MARIS_309E203N_R_EGYP	Egypt	30.93987	20.35618	regions	region	Marīs	مريس	Marīs	مريس	Maris	Maris
NAHRNIL_309E217N_W_EGYP	Egypt	30.94294	21.75496	waters	riviere	Nahr al-Nīl	نهر ﭐلنيل	Nahr al-Nīl	نهر ﭐلنيل	Nahr al-Nil	Nahr al-Nil
MANUFULIYA_309E308N_R_EGYP	Egypt	30.95223	30.87050	regions	district	Manūf al-ʿUliyā	منوف ﭐلعليا	Manūf al-ʿUliyā	منوف ﭐلعليا	Manuf al-Uliya	Manuf al-Uliya
AHNAS_309E291N_S_EGYP	Egypt	30.95992	29.13124	towns	cite	Ahnās	أهناس	Ahnās	أهناس	Ahnas	Ahnas
MISIR_309E310N_S_EGYP	Egypt	30.97785	31.05159	villages	localite	Misīr	مسير	Misīr	مسير	Misir	Misir
LAHUN_309E292N_S_EGYP	Egypt	30.99122	29.24901	towns	cite	al-Lāhūn	ﭐللاهون	al-Lāhūn	ﭐللاهون	al-Lahun	al-Lahun
BURULLUS_309E315N_S_EGYP	Egypt	30.99606	31.58612	towns	cite	Burullus	برلس	Burullus, Barullus	برلس، برلس	Burullus, Barullus	Burullus, Barullus
NAHRNIL_310E288N_W_EGYP	Egypt	31.00602	28.89131	waters	riviere	Nahr al-Nīl	نهر ﭐلنيل	Nahr al-Nīl	نهر ﭐلنيل	Nahr al-Nil	Nahr al-Nil
DHATSAHIL_310E302N_S_EGYP	Egypt	31.01228	30.22134	waystations	etape	Ḏāt al-Sāḥil	ذات ﭐلساحل	Ḏāt al-Sāḥil	ذات ﭐلساحل	Dhat al-Sahil	Dhat al-Sahil
MALIJ_310E305N_S_EGYP	Egypt	31.01342	30.58083	towns	cite	Malīǧ	مليج	Malīǧ	مليج	Malij	Malij
BATNRIF_310E308N_R_EGYP	Egypt	31.02025	30.85291	regions	region	Baṭn al-Rīf	بطن ﭐلريف	Baṭn al-Rīf	بطن ﭐلريف	Batn al-Rif	Batn al-Rif
SUBKABID_310E304N_S_EGYP	Egypt	31.05262	30.43271	villages	localite	Subk al-ʿAbīd	سبك ﭐلعبيد	Subk al-ʿAbīd	سبك ﭐلعبيد	Subk al-Abid	Subk al-Abid
SHATNUF_310E302N_S_EGYP	Egypt	31.06351	30.23314	towns	cite	Šaṭnūf	شطنوف	Šaṭnūf	شطنوف	Shatnuf	Shatnuf
TATA_310E306N_S_EGYP	Egypt	31.08970	30.68760	towns	cite	Ṭaṭāʾ	ططاء	Ṭaṭāʾ	ططاء	Tata	Tata
TANTITA_311E302N_S_EGYP	Egypt	31.10165	30.27628	villages	localite	Tantītā	تنتيتا	Tantītā, Ṭant	تنتيتا، طنت	Tantita, Tant	Tantita, Tant
DIJWA_311E303N_S_EGYP	Egypt	31.10620	30.37013	towns	cite	Diǧwaŧ	دجوة	Diǧwaŧ	دجوة	Dijwa	Dijwa
BUSIR_311E292N_S_EGYP	Egypt	31.10677	29.27633	towns	cite	Būṣīr	بوصير	Būṣīr, Būṣīr al-Fayyūm, Abūṣīr, Būṣīr Qūrīdus, Būṣīr al-Ašmūnayn	بوصير، بوصير ﭐلفيوم، أبوصير، بوصير قوريدس، بوصير ﭐلأشمونين	Busir, Busir al-Fayyum, Abusir, Busir Quridus, Busir al-Ashmunayn	Busir, Busir al-Fayyum, Abusir, Busir Quridus, Busir al-Ashmunayn
WASIM_311E301N_S_EGYP	Egypt	31.10905	30.12144	towns	port	Wasīm	وسيم	Wasīm	وسيم	Wasim	Wasim
MAHALLAKABIRA_311E309N_S_EGYP	Egypt	31.14662	30.97329	towns	cite	Maḥallaŧ al-Kabīraŧ	محلة ﭐلكبيرة	Maḥallaŧ al-Kabīraŧ	محلة ﭐلكبيرة	Mahalla al-Kabira	Mahalla al-Kabira
DALAS_311E292N_S_EGYP	Egypt	31.16142	29.21524	towns	cite	Dalāṣ	دلاص	Dalāṣ, Dilāṣ	دلاص، دلاص	Dalas, Dilas	Dalas, Dilas
BANHAASAL_311E304N_S_EGYP	Egypt	31.16142	30.43641	towns	cite	Banhā al-ʿAsal	بنها ﭐلعسل	Banhā al-ʿAsal	بنها ﭐلعسل	Banha al-Asal	Banha al-Asal
SANDAFA_311E309N_S_EGYP	Egypt	31.16426	30.96890	towns	cite	Ṣandafā	صندفا	Ṣandafā	صندفا	Sandafa	Sandafa
ATRIB_311E304N_R_EGYP	Egypt	31.17223	30.45947	regions	district	Atrīb	أتريب	Atrīb	أتريب	Atrib	Atrib
ATRIB_311E304N_S_EGYP	Egypt	31.17223	30.45947	towns	cite	Atrīb	أتريب	Atrīb	أتريب	Atrib	Atrib
ASYUT_311E271N_S_EGYP	Egypt	31.18485	27.17922	towns	cite	Asyūṭ	أسيوط	Asyūṭ	أسيوط	Asyut	Asyut
SARDUS_311E301N_S_EGYP	Egypt	31.18645	30.16277	towns	cite	Sardūs	سردوس	Sardūs	سردوس	Sardus	Sardus
JIZA_312E300N_S_EGYP	Egypt	31.20183	30.00653	towns	cite	al-Ǧīzaŧ	ﭐلجيزة	al-Ǧīzaŧ	ﭐلجيزة	al-Jiza	al-Jiza
ZIFTAJAWAD_312E307N_S_EGYP	Egypt	31.21094	30.70718	towns	cite	Ziftā Ǧawād	زفتا جواد	Ziftā Ǧawād	زفتا جواد	Zifta Jawad	Zifta Jawad
JAZIRA_312E300N_S_EGYP	Egypt	31.21122	30.04436	quarters	quartier	al-Ǧazīraŧ	ﭐلجزيرة	al-Ǧazīraŧ	ﭐلجزيرة	al-Jazira	al-Jazira
DAMSIS_312E308N_R_EGYP	Egypt	31.22403	30.82041	regions	district	Damsīs	دمسيس	Damsīs	دمسيس	Damsis	Damsis
DAMSIS_312E308N_S_EGYP	Egypt	31.22403	30.82041	towns	cite	Damsīs	دمسيس	Damsīs	دمسيس	Damsis	Damsis
BUTIJ_312E271N_S_EGYP	Egypt	31.22681	27.10901	towns	cite	Būtīǧ	بوتيج	Būtīǧ	بوتيج	Butij	Butij
BASHARUD_312E312N_R_EGYP	Egypt	31.23342	31.28817	regions	region	al-Bašarūd	ﭐلبشرود	al-Bašarūd	ﭐلبشرود	al-Basharud	al-Basharud
QAHIRA_312E300N_S_EGYP	Egypt	31.24168	30.05778	quarters	quartier	al-Qāhiraŧ	ﭐلقاهرة	al-Qāhiraŧ	ﭐلقاهرة	al-Qahira	al-Qahira
SHABRUWA_312E301N_S_EGYP	Egypt	31.24225	30.11048	towns	cite	Šabruwā	شبروا	Šabruwā, Šubrū	شبروا، شبرو	Shabruwa, Shubru	Shabruwa, Shubru
QASR_312E300N_S_EGYP	Egypt	31.24253	30.01540	villages	localite	al-Qaṣr	ﭐلقصر	al-Qaṣr, Bāb Alyūn	ﭐلقصر، باب أليون	al-Qasr, Bab Alyun	al-Qasr, Bab Alyun
SAMANNUD_312E309N_R_EGYP	Egypt	31.24509	30.94986	regions	district	Samannūd	سمنود	Samannūd	سمنود	Samannud	Samannud
FUSTAT_312E300N_S_EGYP	Egypt	31.24964	30.04325	metropoles	metropole	Fusṭāṭ	فسطاط	Fusṭāṭ	فسطاط	Fustat	Fustat
AWSIYA_312E311N_R_EGYP	Egypt	31.25278	31.19181	regions	district	al-Awsiyaŧ	ﭐلأوسية	al-Awsiyaŧ	ﭐلأوسية	al-Awsiya	al-Awsiya
MANF_312E298N_S_EGYP	Egypt	31.25648	29.85447	towns	ville	Manf	منف	Manf, al-ʿAzīziyyaŧ	منف، ﭐلعزيزية	Manf, al-Aziziyya	Manf, al-Aziziyya
SAHRAJAT_312E306N_S_EGYP	Egypt	31.26672	30.65235	villages	localite	Ṣahraǧāt	صهرجات	Ṣahraǧāt	صهرجات	Sahrajat	Sahrajat
NAWASA_312E309N_R_EGYP	Egypt	31.28494	30.97866	regions	district	Nawasā	نوسا	Nawasā	نوسا	Nawasa	Nawasa
HULWAN_312E298N_S_EGYP	Egypt	31.29831	29.86015	towns	cite	Ḥulwān	حلوان	Ḥulwān	حلوان	Hulwan	Hulwan
ATFIH_312E294N_S_EGYP	Egypt	31.29974	29.43347	towns	cite	Aṭfīḥ	أطفيح	Aṭfīḥ	أطفيح	Atfih	Atfih
AWISH_313E310N_S_EGYP	Egypt	31.30514	31.00708	towns	cite	Awīš	أويش	Awīš	أويش	Awish	Awish
AYNSHAMS_313E301N_S_EGYP	Egypt	31.30770	30.12919	towns	cite	ʿAyn Šams	عين شمس	ʿAyn Šams	عين شمس	Ayn Shams	Ayn Shams
JABALMUQATTAM_313E300N_O_EGYP	Egypt	31.31852	30.01368	sites	mont	Ǧabal Muqaṭṭam	جبل مقطم	Ǧabal Muqaṭṭam	جبل مقطم	Jabal Muqattam	Jabal Muqattam
DAMIRA_313E311N_S_EGYP	Egypt	31.35040	31.14140	towns	cite	Damīraŧ	دميرة	Damīraŧ, Dumayraŧ	دميرة، دميرة	Damira, Dumayra	Damira, Dumayra
MASHTUL_313E303N_S_EGYP	Egypt	31.37174	30.36522	towns	cite	Maštūl	مشتول	Maštūl	مشتول	Mashtul	Mashtul
NATWAYA_313E306N_R_EGYP	Egypt	31.37316	30.69837	regions	region	Naṭwayaŧ	نطوية	Naṭwayaŧ, Naṭw al-Rummān	نطوية، نطو ﭐلرمان	Natwaya, Natw al-Rumman	Natwaya, Natw al-Rumman
JUBBAMIRA_313E301N_O_EGYP	Egypt	31.38569	30.16070	sites	lieu	Ǧubb ʿAmīraŧ	جب عميرة	Ǧubb ʿAmīraŧ	جب عميرة	Jubb Amira	Jubb Amira
QAW_314E269N_S_EGYP	Egypt	31.47498	26.94253	villages	localite	Qaw	قو	Qaw, Qahqāwaŧ, Qahqaŧ	قو، قهقاوة، قهقة	Qaw, Qahqawa, Qahqa	Qaw, Qahqawa, Qahqa
BASTA_314E305N_R_EGYP	Egypt	31.49925	30.56736	regions	district	Basṭaŧ	بسطة	Basṭaŧ	بسطة	Basta	Basta
TUMAYY_315E309N_R_EGYP	Egypt	31.51063	30.94376	regions	district	Ṭumayy	طمي	Ṭumayy	طمي	Tumayy	Tumayy
GHAYFA_315E303N_S_EGYP	Egypt	31.51348	30.38241	towns	cite	Ġayfā	غيفا	Ġayfā	غيفا	Ghayfa	Ghayfa
TANA_315E310N_S_EGYP	Egypt	31.54194	31.04233	towns	cite	Tanā	تنا	Tanā	تنا	Tana	Tana
KHALIJSARDUS_315E311N_W_EGYP	Egypt	31.55816	31.11972	waters	riviere	Ḫalīǧ Sardūs	خليج سردوس	Ḫalīǧ Sardūs	خليج سردوس	Khalij Sardus	Khalij Sardus
BILBAYS_315E304N_S_EGYP	Egypt	31.57097	30.41776	capitals	capitale	Bilbays	بلبيس	Bilbays	بلبيس	Bilbays	Bilbays
HAWFSHARQI_315E305N_R_EGYP	Egypt	31.57495	30.59137	regions	circon	al-Ḥawf al-Šarqī	ﭐلحوف ﭐلشرقي	al-Ḥawf al-Šarqī	ﭐلحوف ﭐلشرقي	al-Hawf al-Sharqi	al-Hawf al-Sharqi
BUWAYB_315E301N_S_EGYP	Egypt	31.57979	30.16955	waystations	etape	Buwayb	بويب	Buwayb	بويب	Buwayb	Buwayb
BALADNUBA_316E197N_R_EGYP	Egypt	31.60503	19.72554	regions	region	Balad al-Nūbaŧ	بلد ﭐلنوبة	Balad al-Nūbaŧ	بلد ﭐلنوبة	Balad al-Nuba	Balad al-Nuba
DAYR_316E265N_R_EGYP	Egypt	31.60625	26.54490	regions	district	al-Dayr	ﭐلدير	al-Dayr, Dayr Bū Šanūdaŧ	ﭐلدير، دير بو شنودة	al-Dayr, Dayr Bu Shanuda	al-Dayr, Dayr Bu Shanuda
QURBAYT_316E307N_R_EGYP	Egypt	31.62447	30.73556	regions	district	Qurbayt	قربيت	Qurbayt	قربيت	Qurbayt	Qurbayt
FAW_316E266N_S_EGYP	Egypt	31.64900	26.69354	villages	localite	Fāw	فاو	Fāw	فاو	Faw	Faw
KHALIJDAQADUS_316E309N_W_EGYP	Egypt	31.65521	30.93839	waters	riviere	Ḫalīǧ Daqādūs	خليج دقادوس	Ḫalīǧ Daqādūs	خليج دقادوس	Khalij Daqadus	Khalij Daqadus
DAQAHLA_316E312N_S_EGYP	Egypt	31.66289	31.28355	towns	cite	Daqahlaŧ	دقهلة	Daqahlaŧ	دقهلة	Daqahla	Daqahla
ABBASIYYA_317E305N_S_EGYP	Egypt	31.70644	30.53647	towns	cite	al-ʿAbbāsiyyaŧ	ﭐلعباسية	al-ʿAbbāsiyyaŧ	ﭐلعباسية	al-Abbasiyya	al-Abbasiyya
AKHMIM_317E265N_S_EGYP	Egypt	31.72957	26.56301	towns	cite	Aḫmīm	أخميم	Aḫmīm	أخميم	Akhmim	Akhmim
ATRABIYYA_317E307N_R_EGYP	Egypt	31.74628	30.70963	regions	region	Aṭrabiyyaŧ	أطربية	Aṭrabiyyaŧ	أطربية	Atrabiyya	Atrabiyya
DIMYAT_317E314N_S_EGYP	Egypt	31.79125	31.43739	towns	cite	Dimyāṭ	دمياط	Dimyāṭ	دمياط	Dimyat	Dimyat
FAQUS_317E307N_S_EGYP	Egypt	31.79581	30.71061	towns	cite	Fāqūs	فاقوس	Fāqūs	فاقوس	Faqus	Faqus
ABSHAYA_317E264N_S_EGYP	Egypt	31.79880	26.47449	villages	localite	Abšāyaŧ	أبشاية	Abšāyaŧ	أبشاية	Abshaya	Abshaya
KHALIJAMIRMUMININ_317E305N_W_EGYP	Egypt	31.79922	30.57863	waters	canal	Ḫalīǧ Amīr al-Muʾminīn	خليج أمير ﭐلمؤمنين	Ḫalīǧ Amīr al-Muʾminīn	خليج أمير ﭐلمؤمنين	Khalij Amir al-Muminin	Khalij Amir al-Muminin
IBLIL_318E310N_R_EGYP	Egypt	31.83110	31.01550	regions	region	Iblīl	إبليل	Iblīl	إبليل	Iblil	Iblil
SHATA_318E314N_S_EGYP	Egypt	31.87094	31.40557	towns	cite	Šaṭā	شطا	Šaṭā	شطا	Shata	Shata
SAN_318E309N_R_EGYP	Egypt	31.87265	30.97890	regions	district	Ṣān	صان	Ṣān	صان	San	San
BUNDUQA_319E300N_S_EGYP	Egypt	31.93498	30.09522	waystations	etape	Bunduqaŧ	بندقة	Bunduqaŧ, Manzil Ibn Bunduqaŧ, Manzil Ibn Ṣadaqaŧ	بندقة، منزل إبن بندقة، منزل إبن صدقة	Bunduqa, Manzil Ibn Bunduqa, Manzil Ibn Sadaqa	Bunduqa, Manzil Ibn Bunduqa, Manzil Ibn Sadaqa
BUHAYRATINNIS_319E312N_W_EGYP	Egypt	31.99133	31.25935	waters	lac	Buḥayraŧ Tinnīs	بحيرة تنيس	Buḥayraŧ Tinnīs	بحيرة تنيس	Buhayra Tinnis	Buhayra Tinnis
BULYANA_319E262N_S_EGYP	Egypt	31.99590	26.21922	towns	cite	Bulyanā	بلينا	Bulyanā	بلينا	Bulyana	Bulyana
MANSAF_320E301N_S_EGYP	Egypt	32.05366	30.18702	villages	localite	al-Manṣaf	ﭐلمنصف	al-Manṣaf	ﭐلمنصف	al-Mansaf	al-Mansaf
TUNA_320E311N_S_EGYP	Egypt	32.08240	31.16442	towns	cite	Tūnaŧ	تونة	Tūnaŧ	تونة	Tuna	Tuna
JURJIR_321E309N_S_EGYP	Egypt	32.19454	30.91373	towns	cite	Ǧurǧīr	جرجير	Ǧurǧīr	جرجير	Jurjir	Jurjir
TINNIS_322E312N_S_EGYP	Egypt	32.22755	31.21262	towns	cite	Tinnīs	تنيس	Tinnīs	تنيس	Tinnis	Tinnis
HU_322E260N_S_EGYP	Egypt	32.29854	26.02153	towns	cite	Hū	هو	Hū	هو	Hu	Hu
QANTARA_323E308N_S_EGYP	Egypt	32.32461	30.85902	villages	localite	al-Qanṭaraŧ	ﭐلقنطرة	al-Qanṭaraŧ	ﭐلقنطرة	al-Qantara	al-Qantara
NILABYAD_323E150N_W_EGYP	Egypt	32.35560	15.06046	waters	riviere	al-Nīl al-Abyaḍ	ﭐلنيل ﭐلأبيض	al-Nīl al-Abyaḍ	ﭐلنيل ﭐلأبيض	al-Nil al-Abyad	al-Nil al-Abyad
AJARUD_323E300N_S_EGYP	Egypt	32.38039	30.05828	waystations	etape	ʿAǧarūd	عجرود	ʿAǧarūd	عجرود	Ajarud	Ajarud
MAQURRA_324E180N_R_EGYP	Egypt	32.46943	18.06095	regions	region	Maqurraŧ	مقرة	Maqurraŧ, Muqurraŧ	مقرة، مقرة	Maqurra, Muqurra	Maqurra, Muqurra
ARMANT_325E256N_S_EGYP	Egypt	32.51795	25.64017	towns	cite	Armant	أرمنت	Armant	أرمنت	Armant	Armant
SUWAYS_325E299N_S_EGYP	Egypt	32.54404	29.97325	villages	localite	Suways	سويس	Suways	سويس	Suways	Suways
ASNA_325E253N_S_EGYP	Egypt	32.55162	25.32189	towns	cite	Asnā	أسنا	Asnā	أسنا	Asna	Asna
SUBA_325E154N_S_EGYP	Egypt	32.55275	15.48074	villages	localite	Sūbaŧ	سوبة	Sūbaŧ	سوبة	Suba	Suba
QULZUM_325E300N_S_EGYP	Egypt	32.55684	30.02822	towns	cite	al-Qulzum	ﭐلقلزم	al-Qulzum	ﭐلقلزم	al-Qulzum	al-Qulzum
FARAMA_325E310N_S_EGYP	Egypt	32.59811	31.02282	capitals	capitale	al-Faramā	ﭐلفرما	al-Faramā	ﭐلفرما	al-Farama	al-Farama
AQSUR_326E257N_S_EGYP	Egypt	32.61253	25.72063	towns	cite	al-Aqṣūr	ﭐلأقصور	al-Aqṣūr	ﭐلأقصور	al-Aqsur	al-Aqsur
DANDARA_326E261N_R_EGYP	Egypt	32.64544	26.15778	regions	district	Dandaraŧ	دندرة	Dandaraŧ	دندرة	Dandara	Dandara
QINA_327E261N_R_EGYP	Egypt	32.73283	26.17068	regions	district	Qinā	قنا	Qinā	قنا	Qina	Qina
NAHRNIL_327E252N_W_EGYP	Egypt	32.74002	25.22987	waters	riviere	Nahr al-Nīl	نهر ﭐلنيل	Nahr al-Nīl	نهر ﭐلنيل	Nahr al-Nil	Nahr al-Nil
QUS_327E259N_S_EGYP	Egypt	32.74342	25.91848	towns	cite	Qūṣ	قوص	Qūṣ	قوص	Qus	Qus
QIFT_328E259N_R_EGYP	Egypt	32.80433	25.99671	regions	district	Qifṭ	قفط	Qifṭ, Qufṭ	قفط، قفط	Qift, Quft	Qift, Quft
ALLAQI_328E230N_S_EGYP	Egypt	32.87404	23.01969	towns	cite	ʿAllaqī	علقي	ʿAllaqī	علقي	Allaqi	Allaqi
ATFU_328E250N_R_EGYP	Egypt	32.87999	25.01203	regions	district	Atfū	أتفو	Atfū	أتفو	Atfu	Atfu
KUBAN_328E231N_S_EGYP	Egypt	32.88630	23.12192	waystations	etape	Kubān	كبان	Kubān, Qubbān	كبان، قبان	Kuban, Qubban	Kuban, Qubban
JANADIL_329E240N_O_EGYP	Egypt	32.92462	24.01605	sites	cataracte	al-Ǧanādil	ﭐلجنادل	al-Ǧanādil	ﭐلجنادل	al-Janadil	al-Janadil
QASR_329E238N_S_EGYP	Egypt	32.93994	23.86056	villages	localite	al-Qaṣr	ﭐلقصر	al-Qaṣr	ﭐلقصر	al-Qasr	al-Qasr
BILAQ_329E239N_R_EGYP	Egypt	32.94356	23.99294	regions	ile	Bilāq	بلاق	Bilāq, Ablāq	بلاق، أبلاق	Bilaq, Ablaq	Bilaq, Ablaq
WADIALLAQI_329E229N_W_EGYP	Egypt	32.97579	22.98246	waters	wadi	Wādī ʿAllāqī	وادي علاقي	Wādī ʿAllāqī	وادي علاقي	Wadi Allaqi	Wadi Allaqi
USWAN_329E241N_S_EGYP	Egypt	32.98286	24.10701	capitals	capitale	Uswān	أسوان	Uswān	أسوان	Uswan	Uswan
UNBUWA_329E244N_S_EGYP	Egypt	32.98745	24.46534	towns	cite	Unbuwā	أنبوا	Unbuwā, Unbuw	أنبوا، أنبو	Unbuwa, Unbuw	Unbuwa, Unbuw
DAYRNASARA_330E311N_S_EGYP	Egypt	33.05753	31.14397	waystations	etape	Dayr al-Naṣārá	دير ﭐلنصارى	Dayr al-Naṣārá, Ḥiṣn al-Naṣārá, al-Qaṣr	دير ﭐلنصارى، حصن ﭐلنصارى، ﭐلقصر	Dayr al-Nasara, Hisn al-Nasara, al-Qasr	Dayr al-Nasara, Hisn al-Nasara, al-Qasr
BAQQARA_331E310N_S_EGYP	Egypt	33.12566	31.02385	towns	cite	al-Baqqāraŧ	ﭐلبقارة	al-Baqqāraŧ	ﭐلبقارة	al-Baqqara	al-Baqqara
JIFAR_332E307N_R_EGYP	Egypt	33.23727	30.75519	regions	region	al-Ǧifār	ﭐلجفار	al-Ǧifār	ﭐلجفار	al-Jifar	al-Jifar
MAADINTIBR_333E226N_O_EGYP	Egypt	33.35835	22.61001	sites	mines	Maʿādin al-Tibr	معادن ﭐلتبر	Maʿādin al-Tibr	معادن ﭐلتبر	Maadin al-Tibr	Maadin al-Tibr
SANTA_334E194N_S_EGYP	Egypt	33.43051	19.40078	villages	localite	al-Sanṭaŧ	ﭐلسنطة	al-Sanṭaŧ	ﭐلسنطة	al-Santa	al-Santa
WARRADA_335E310N_S_EGYP	Egypt	33.54242	31.06734	towns	cite	al-Warrādaŧ	ﭐلورادة	al-Warrādaŧ	ﭐلورادة	al-Warrada	al-Warrada
FARAN_336E286N_S_EGYP	Egypt	33.67254	28.67926	towns	district/oasis/cite?	Fārān	فاران	Fārān	فاران	Faran	Faran
TIHBANUISRAIL_338E291N_R_EGYP	Egypt	33.80128	29.16755	regions	desert	Tīh Banū Isrāʾil	تيه بنو إسرائل	Tīh Banū Isrāʾil	تيه بنو إسرائل	Tih Banu Israil	Tih Banu Israil
ARISH_338E311N_S_EGYP	Egypt	33.80807	31.12453	towns	cite	al-ʿArīš	ﭐلعريش	al-ʿArīš	ﭐلعريش	al-Arish	al-Arish
MAADINZUMURRUDH_338E250N_O_EGYP	Egypt	33.89324	25.07556	sites	mines	Maʿādin al-Zumurruḏ	معادن ﭐلزمرذ	Maʿādin al-Zumurruḏ	معادن ﭐلزمرذ	Maadin al-Zumurrudh	Maadin al-Zumurrudh
TURSINA_339E283N_O_EGYP	Egypt	33.95454	28.35876	sites	mont	Ṭūr Sīnāʾ	طور سيناء	Ṭūr Sīnāʾ	طور سيناء	Tur Sina	Tur Sina
ABWAB_340E174N_S_EGYP	Egypt	34.09472	17.49927	villages	localite	al-Abwāb	ﭐلأبواب	al-Abwāb	ﭐلأبواب	al-Abwab	al-Abwab
WADIALLAQI_341E221N_W_EGYP	Egypt	34.10934	22.13452	waters	wadi	Wādī ʿAllaqī	وادي علقي	Wādī ʿAllaqī	وادي علقي	Wadi Allaqi	Wadi Allaqi
BILADHABASHA_341E149N_R_EGYP	Egypt	34.14753	14.94825	regions	region	Bilād al-Ḥabašaŧ	بلاد ﭐلحبشة	Bilād al-Ḥabašaŧ	بلاد ﭐلحبشة	Bilad al-Habasha	Bilad al-Habasha
QUSAYR_342E261N_S_EGYP	Egypt	34.27748	26.10673	villages	localite	Quṣayr	قصير	Quṣayr	قصير	Qusayr	Qusayr
AYDHAB_362E224N_S_EGYP	Egypt	36.24428	22.48899	towns	port	ʿAyḏab	عيذب	ʿAyḏab	عيذب	Aydhab	Aydhab
BILADBUJJA_370E192N_R_EGYP	Egypt	37.06730	19.28058	regions	region	Bilād al-Buǧǧaŧ	بلاد ﭐلبجة	Bilād al-Buǧǧaŧ	بلاد ﭐلبجة	Bilad al-Bujja	Bilad al-Bujja
SUWAKIN_373E191N_S_EGYP	Egypt	37.33032	19.11304	villages	localite	Suwākin	سواكن	Suwākin	سواكن	Suwakin	Suwakin
BADI_394E156N_S_EGYP	Egypt	39.48117	15.63308	towns	ile/port/cite?	Bāḍiʿ	باضع	Bāḍiʿ	باضع	Badi	Badi
HINDUWAN_497E302N_S_FARI	Faris	49.70675	30.25118	towns	cite	Hinduwān	هندوان	Hinduwān, Hindīǧān	هندوان، هنديجان	Hinduwan, Hindijan	Hinduwan, Hindijan
MAHRUBAN_502E300N_S_FARI	Faris	50.21436	30.06436	towns	cite	Mahrūbān	مهروبان	Mahrūbān	مهروبان	Mahruban	Mahruban
RISHAHR_502E303N_S_FARI	Faris	50.22217	30.34108	villages	localite	Rīšahr	ريشهر	Rīšahr	ريشهر	Rishahr	Rishahr
SINIZ_502E299N_S_FARI	Faris	50.27838	29.92283	towns	cite	Sīnīz	سينيز	Sīnīz, Šīnīz	سينيز، شينيز	Siniz, Shiniz	Siniz, Shiniz
ARRAJAN_502E306N_S_FARI	Faris	50.29766	30.61030	capitals	capitale	Arrāǧān	أراجان	Arrāǧān	أراجان	Arrajan	Arrajan
JAZIRAKHARAK_503E292N_R_FARI	Faris	50.33529	29.23531	regions	ile	Ǧazīraŧ Ḫarak	جزيرة خرك	Ǧazīraŧ Ḫarak	جزيرة خرك	Jazira Kharak	Jazira Kharak
SANJAHAN_503E297N_S_FARI	Faris	50.38864	29.74023	waystations	etape	Sanǧāhān	سنجاهان	Sanǧāhān	سنجاهان	Sanjahan	Sanjahan
ZAYTUN_503E305N_S_FARI	Faris	50.39397	30.51616	towns	cite	Zaytūn	زيتون	Zaytūn, Zaytān, Firzuk	زيتون، زيتان، فرزك	Zaytun, Zaytan, Firzuk	Zaytun, Zaytan, Firzuk
SARDAN_504E309N_R_FARI	Faris	50.42781	30.99710	regions	region	Sardān	سردان	Sardān	سردان	Sardan	Sardan
SAHIK_504E299N_S_FARI	Faris	50.46130	29.96408	waystations	etape?	Ṣāḥik	صاحك	Ṣāḥik	صاحك	Sahik	Sahik
ROUTEPOINTS0699_505E304N_O_FARI	Faris	50.51371	30.44661	xroads	rPoint	RoutePoints0699	RoutePoints0699	RoutePoints0699	RoutePoints0699	RoutePoints0699	RoutePoints0699
JANNABA_505E296N_S_FARI	Faris	50.53898	29.60089	towns	cite	Ǧannābaŧ	جنابة	Ǧannābaŧ	جنابة	Jannaba	Jannaba
LURDAJAN_507E315N_S_FARI	Faris	50.73914	31.53831	towns	cite	Lūrdaǧān	لوردجان	Lūrdaǧān, al-Lūriǧān	لوردجان، ﭐللورجان	Lurdajan, al-Lurijan	Lurdajan, al-Lurijan
SAHIK_508E307N_S_FARI	Faris	50.80266	30.74015	villages	village?	Ṣāhik	صاهك	Ṣāhik	صاهك	Sahik	Sahik
JUNBADHMALLAGHAN_508E302N_S_FARI	Faris	50.84951	30.29389	towns	cite	Ǧunbaḏ Mallaġān	جنبذ ملغان	Ǧunbaḏ Mallaġān, Ǧunbaḏ Mallaǧān	جنبذ ملغان، جنبذ ملجان	Junbadh Mallaghan, Junbadh Mallajan	Junbadh Mallaghan, Junbadh Mallajan
TAWWAZ_510E294N_S_FARI	Faris	51.03513	29.44172	towns	cite	Tawwaz	توز	Tawwaz, Tawwaǧ !	توز، توج !	Tawwaz, Tawwaj !	Tawwaz, Tawwaj !
BAZRANJ_511E299N_R_FARI	Faris	51.11281	29.92934	regions	region	Bazranǧ	بزرنج	Bazranǧ	بزرنج	Bazranj	Bazranj
NAJIRAM_511E284N_R_FARI	Faris	51.12283	28.49687	regions	region	Naǧīram	نجيرم	Naǧīram	نجيرم	Najiram	Najiram
TAWWAZ_511E294N_S_FARI	Faris	51.17294	29.42208	towns	cite	Tawwaz	توز	Tawwaz, Tawwaǧ !	توز، توج !	Tawwaz, Tawwaj !	Tawwaz, Tawwaj !
BALASABUR_511E303N_R_FARI	Faris	51.17750	30.39947	regions	region	Balā Sābūr	بلا سابور	Balā Sābūr	بلا سابور	Bala Sabur	Bala Sabur
DAKHWID_512E303N_S_FARI	Faris	51.25820	30.30738	villages	pont/bourgade/etape	Daḫwīd	دخويد	Daḫwīd, Darḫīḏ	دخويد، درخيذ	Dakhwid, Darkhidh	Dakhwid, Darkhidh
GHUNDIJAN_512E292N_S_FARI	Faris	51.26065	29.22327	towns	cite	al-Ġundiǧān	ﭐلغندجان	al-Ġundiǧān	ﭐلغندجان	al-Ghundijan	al-Ghundijan
DASHTBARIN_512E292N_S_FARI	Faris	51.26816	29.28011	towns	canton	Dašt Bārīn	دشت بارين	Dašt Bārīn	دشت بارين	Dasht Barin	Dasht Barin
HINDUJAN_513E293N_S_FARI	Faris	51.30074	29.39151	villages	localite	Hindūǧān	هندوجان	Hindūǧān, Hindīǧān	هندوجان، هنديجان	Hindujan, Hindijan	Hindujan, Hindijan
KHASHT_513E295N_S_FARI	Faris	51.30575	29.54859	towns	cite	Ḫašt	خشت	Ḫašt	خشت	Khasht	Khasht
KHURMUQ_513E286N_R_FARI	Faris	51.39095	28.66191	regions	region	Ḫurmuq	خرمق	Ḫurmuq	خرمق	Khurmuq	Khurmuq
NAHRSABUR_514E296N_W_FARI	Faris	51.42853	29.64228	waters	riviere	Nahr Sābūr	نهر سابور	Nahr Sābūr	نهر سابور	Nahr Sabur	Nahr Sabur
KHUMAYJAN_514E300N_R_FARI	Faris	51.44858	30.01617	regions	region	Ḫumayǧān	خميجان	Ḫumayǧān	خميجان	Khumayjan	Khumayjan
KHAWADHAN_515E302N_S_FARI	Faris	51.50809	30.24443	villages	localite	Ḫawāḏān	خواذان	Ḫawāḏān, Ḫawrāwāḏān, Ḫawrābāḏān, Ḫūbaḏān	خواذان، خوراواذان، خوراباذان، خوبذان	Khawadhan, Khawrawadhan, Khawrabadhan, Khubadhan	Khawadhan, Khawrawadhan, Khawrabadhan, Khubadhan
KUMARIJ_515E295N_S_FARI	Faris	51.51373	29.57692	towns	ville	Kumāriǧ	كمارج	Kumāriǧ	كمارج	Kumarij	Kumarij
SHAHRASTAN_515E298N_S_FARI	Faris	51.51624	29.83157	capitals	capitale	Šahrastān	شهرستان	Šahrastān, Sābūr	شهرستان، سابور	Shahrastan, Sabur	Shahrastan, Sabur
SABUR_515E298N_R_FARI	Faris	51.51624	29.83157	regions	circonscription	Sābūr	سابور	Sābūr, Šahrastān	سابور، شهرستان	Sabur, Shahrastan	Sabur, Shahrastan
DARIZ_515E296N_S_FARI	Faris	51.54129	29.66188	towns	cite	Darīz	دريز	Darīz	دريز	Dariz	Dariz
NUBANDAJAN_515E301N_S_FARI	Faris	51.55235	30.12743	towns	cite	Nūbandaǧān	نوبندجان	Nūbandaǧān, Nūbanǧān	نوبندجان، نوبنجان	Nubandajan, Nubanjan	Nubandajan, Nubanjan
QALAJISS_516E301N_S_FARI	Faris	51.64606	30.15444	waystations	citadelle	Qalʿaŧ al-Ǧiṣṣ	قلعة ﭐلجص	Qalʿaŧ al-Ǧiṣṣ	قلعة ﭐلجص	Qala al-Jiss	Qala al-Jiss
KAZARUN_516E296N_S_FARI	Faris	51.68412	29.60743	towns	cite	Kāzarūn	كازرون	Kāzarūn	كازرون	Kazarun	Kazarun
KARU_516E317N_S_FARI	Faris	51.69552	31.79256	waystations	etape	Karū	كرو	Karū	كرو	Karu	Karu
NAHRJARSIQ_517E293N_W_FARI	Faris	51.76932	29.32600	waters	riviere	Nahr Ǧarsīq	نهر جرسيق	Nahr Ǧarsīq, Nahr Ǧaršīq	نهر جرسيق، نهر جرشيق	Nahr Jarsiq, Nahr Jarshiq	Nahr Jarsiq, Nahr Jarshiq
JARKAN_517E300N_S_FARI	Faris	51.78402	30.09815	villages	localite	Ǧarkān	جركان	Ǧarkān, Ḫarkān, Karkān, al-Karǧān	جركان، خركان، كركان، ﭐلكرجان	Jarkan, Kharkan, Karkan, al-Karjan	Jarkan, Kharkan, Karkan, al-Karjan
JAFARABADH_518E311N_S_FARI	Faris	51.81266	31.19326	waystations	etape	Ǧaʿfarābāḏ	جعفراباذ	Ǧaʿfarābāḏ	جعفراباذ	Jafarabadh	Jafarabadh
SUMAYRAM_518E313N_S_FARI	Faris	51.81266	31.35567	waystations	etape	Sumayram	سميرم	Sumayram	سميرم	Sumayram	Sumayram
BUHAYRAKAZARUN_518E295N_W_FARI	Faris	51.83196	29.50280	waters	lac	Buḥayraŧ Kāzarūn	بحيرة كازرون	Buḥayraŧ Kāzarūn	بحيرة كازرون	Buhayra Kazarun	Buhayra Kazarun
QUMISA_518E320N_S_FARI	Faris	51.86732	32.00251	waystations	etape	Qūmisaŧ	قومسة	Qūmisaŧ	قومسة	Qumisa	Qumisa
KAMFAYRUZ_519E305N_R_FARI	Faris	51.90116	30.50943	regions	region	Kām Fayrūz	كام فيروز	Kām Fayrūz	كام فيروز	Kam Fayruz	Kam Fayruz
MAS_519E314N_O_FARI	Faris	51.91938	31.44454	sites	site	Mās	ماس	Mās	ماس	Mas	Mas
KALLAR_519E307N_S_FARI	Faris	51.92199	30.72449	villages	localite	Kallār	كلار	Kallār	كلار	Kallar	Kallar
TIRMARDAN_519E298N_R_FARI	Faris	51.92718	29.86635	regions	region	Tīr Mardān	تير مردان	Tīr Mardān	تير مردان	Tir Mardan	Tir Mardan
KURD_519E306N_S_FARI	Faris	51.93240	30.69092	waystations	etape	Kūrd	كورد	Kūrd, Kūrad	كورد، كورد	Kurd, Kurad	Kurd, Kurad
DASHTARZAN_519E296N_S_FARI	Faris	51.94222	29.60960	villages	localite	Dašt Arzan	دشت أرزن	Dašt Arzan	دشت أرزن	Dasht Arzan	Dasht Arzan
KHARRARA_519E300N_S_FARI	Faris	51.94541	30.04859	waystations	etape	al-Ḫarrāraŧ	ﭐلخرارة	al-Ḫarrāraŧ	ﭐلخرارة	al-Kharrara	al-Kharrara
RUZKAN_519E318N_S_FARI	Faris	51.96103	31.80584	waystations	etape	Rūzkān	روزكان	Rūzkān	روزكان	Ruzkan	Ruzkan
KHURRA_519E292N_S_FARI	Faris	51.97730	29.22327	towns	cite	Ḫurraŧ	خرة	Ḫurraŧ	خرة	Khurra	Khurra
URD_519E307N_S_FARI	Faris	51.99227	30.77818	towns	canton/cite	Ūrd	أورد	Ūrd	أورد	Urd	Urd
KHANRUSHAN_520E312N_S_FARI	Faris	52.02871	31.25559	waystations	etape	Ḫān Rūšan	خان روشن	Ḫān Rūšan, Ḫān Awīs, Ḫuwāriš	خان روشن، خان أويس، خوارش	Khan Rushan, Khan Awis, Khuwarish	Khan Rushan, Khan Awis, Khuwarish
AZKAS_521E315N_S_FARI	Faris	52.17709	31.51558	waystations	etape	Azkās	أزكاس	Azkās	أزكاس	Azkas	Azkas
KHULLAR_521E299N_S_FARI	Faris	52.19005	29.98842	waystations	etape	Ḫullār	خلار	Ḫullār, Ḫullān	خلار، خلان	Khullar, Khullan	Khullar, Khullan
MIHRJANAWAZ_522E303N_S_FARI	Faris	52.21353	30.39049	waystations	etape	Mihrǧānāwāz	مهرجاناواز	Mihrǧānāwāz	مهرجاناواز	Mihrjanawaz	Mihrjanawaz
KHANASAD_522E295N_S_FARI	Faris	52.22036	29.56820	waystations	etape	Ḫān al-Asad	خان ﭐلأسد	Ḫān al-Asad	خان ﭐلأسد	Khan al-Asad	Khan al-Asad
MAH_522E280N_S_FARI	Faris	52.28050	28.05331	waystations	etape	Mah	مه	Mah, Má	مه، مى	Mah, Ma	Mah, Ma
JUWAYM_522E298N_S_FARI	Faris	52.29587	29.87379	villages	village	Ǧuwaym	جويم	Ǧuwaym	جويم	Juwaym	Juwaym
SIRAF_523E276N_S_FARI	Faris	52.34306	27.69666	capitals	capitale	Sīrāf	سيراف	Sīrāf	سيراف	Siraf	Siraf
KIRAND_523E284N_S_FARI	Faris	52.36569	28.41977	waystations	etape	Kīrand	كيرند	Kīrand	كيرند	Kirand	Kirand
BAYDA_523E300N_S_FARI	Faris	52.36712	30.03958	towns	cite	al-Bayḍāʾ	ﭐلبيضاء	al-Bayḍāʾ, Nasā	ﭐلبيضاء، نسا	al-Bayda, Nasa	al-Bayda, Nasa
JAMM_523E278N_S_FARI	Faris	52.39133	27.81680	villages	localite	Ǧamm	جم	Ǧamm	جم	Jamm	Jamm
SARWISTAN_524E314N_S_FARI	Faris	52.43219	31.42233	towns	cite	Sarwīstān	سرويستان	Sarwīstān, Sarūrīr	سرويستان، سرورير	Sarwistan, Sarurir	Sarwistan, Sarurir
RUN_524E307N_R_FARI	Faris	52.44000	30.74910	regions	region	al-Rūn	ﭐلرون	al-Rūn	ﭐلرون	al-Run	al-Run
QASRAIN_524E308N_S_FARI	Faris	52.44521	30.82066	towns	cite/etape	Qaṣr Aʿīn	قصر أعين	Qaṣr Aʿīn, Qaṣr Āyīn, al-Rūn	قصر أعين، قصر آيين، ﭐلرون	Qasr Ain, Qasr Ayin, al-Run	Qasr Ain, Qasr Ayin, al-Run
KHUSIKAN_524E305N_S_FARI	Faris	52.48426	30.50270	waystations	etape	Ḫūsikān	خوسكان	Ḫūsikān	خوسكان	Khusikan	Khusikan
HAZAR_524E299N_S_FARI	Faris	52.49428	29.94029	towns	cite	Hazār	هزار	Hazār, Azār Sābūr	هزار، أزار سابور	Hazar, Azar Sabur	Hazar, Azar Sabur
KAFRAH_524E295N_S_FARI	Faris	52.49957	29.50609	waystations	etape	Kafrah	كفره	Kafrah, Kafr	كفره، كفر	Kafrah, Kafr	Kafrah, Kafr
SHIRAZ_525E296N_S_FARI	Faris	52.52867	29.61884	metropoles	metropole	Šīrāz	شيراز	Šīrāz	شيراز	Shiraz	Shiraz
JUR_525E288N_S_FARI	Faris	52.58324	28.84797	towns	cite	Ǧūr	جور	Ǧūr, Bayrūzābāḏ	جور، بيروزاباذ	Jur, Bayruzabadh	Jur, Bayruzabadh
ARJUMAN_526E311N_R_FARI	Faris	52.62743	31.17990	regions	region	Arǧumān	أرجمان	Arǧumān	أرجمان	Arjuman	Arjuman
BARM_526E311N_R_FARI	Faris	52.62743	31.17990	regions	region	Barm	برم	Barm	برم	Barm	Barm
MAIN_526E301N_S_FARI	Faris	52.63784	30.18595	towns	cite	Maʾīn	مئين	Maʾīn, Maʿīn	مئين، معين	Main, Main	Main, Main
NABAND_526E273N_S_FARI	Faris	52.64171	27.34352	villages	localite	Nāband	نابند	Nāband	نابند	Naband	Naband
ABADHA_526E311N_S_FARI	Faris	52.66127	31.16430	towns	cite	Ābāḏaŧ	آباذة	Ābāḏaŧ, Arǧumān	آباذة، أرجمان	Abadha, Arjuman	Abadha, Arjuman
RAYKAN_526E285N_S_FARI	Faris	52.67152	28.52097	waystations	etape	Rāykān	رايكان	Rāykān, Ḫān Azādmard	رايكان، خان أزادمرد	Raykan, Khan Azadmard	Raykan, Khan Azadmard
IQLID_526E309N_S_FARI	Faris	52.67168	30.91897	villages	localite	Iqlīd	إقليد	Iqlīd	إقليد	Iqlid	Iqlid
QALASAIDABADH_526E300N_S_FARI	Faris	52.67428	30.09815	waystations	citadelle	Qalʿaŧ Saʿīdābāḏ	قلعة سعيداباذ	Qalʿaŧ Saʿīdābāḏ	قلعة سعيداباذ	Qala Saidabadh	Qala Saidabadh
BIYABSHURAB_526E286N_S_FARI	Faris	52.68133	28.69894	waystations	etape	Biyābšūrāb	بيابشوراب	Biyābšūrāb, Dašt Šūrāb	بيابشوراب، دشت شوراب	Biyabshurab, Dasht Shurab	Biyabshurab, Dasht Shurab
KUWAR_526E292N_S_FARI	Faris	52.69768	29.21962	waystations	etape	Kuwār	كوار	Kuwār	كوار	Kuwar	Kuwar
RAKAN_527E297N_S_FARI	Faris	52.74824	29.77510	villages	localite	Rakān	ركان	Rakān	ركان	Rakan	Rakan
SARMAQ_527E310N_S_FARI	Faris	52.79142	31.05956	towns	cite	Sarmaq	سرمق	Sarmaq, al-Surmaq	سرمق، ﭐلسرمق	Sarmaq, al-Surmaq	Sarmaq, al-Surmaq
QARYARUMMAN_528E293N_S_FARI	Faris	52.80644	29.37477	waystations	etape	Qaryaŧ al-Rummān	قرية ﭐلرمان	Qaryaŧ al-Rummān	قرية ﭐلرمان	Qarya al-Rumman	Qarya al-Rumman
MIMAND_528E288N_S_FARI	Faris	52.85141	28.88488	towns	cite	Mīmand	ميمند	Mīmand	ميمند	Mimand	Mimand
KURAN_528E277N_S_FARI	Faris	52.86193	27.76342	towns	cite	Kurān	كران	Kurān	كران	Kuran	Kuran
MUSHKAN_528E306N_S_FARI	Faris	52.86431	30.60582	towns	cite	Muškān	مشكان	Muškān	مشكان	Mushkan	Mushkan
RASSIKR_528E297N_S_FARI	Faris	52.87257	29.77510	waystations	barrage	Raʾs al-Sikr	رأس ﭐلسكر	Raʾs al-Sikr	رأس ﭐلسكر	Ras al-Sikr	Ras al-Sikr
KHANMIM_528E293N_S_FARI	Faris	52.88580	29.31712	villages	village	Ḫān Mīm	خان ميم	Ḫān Mīm	خان ميم	Khan Mim	Khan Mim
DARIYAN_529E295N_S_FARI	Faris	52.92548	29.54062	waystations	etape	Dāriyān	داريان	Dāriyān	داريان	Dariyan	Dariyan
ISTAKHR_529E299N_S_FARI	Faris	52.92548	29.97008	capitals	capitale	Iṣṭaḫr	إصطخر	Iṣṭaḫr	إصطخر	Istakhr	Istakhr
ABZAR_529E282N_S_FARI	Faris	52.94703	28.28084	villages	localite	Abzar	أبزر	Abzar	أبزر	Abzar	Abzar
QARYAIBNBUNDAR_530E301N_S_FARI	Faris	53.03090	30.13418	waystations	etape	Qaryaŧ Ibn Bundār	قرية إبن بندار	Qaryaŧ Ibn Bundār	قرية إبن بندار	Qarya Ibn Bundar	Qarya Ibn Bundar
QIR_530E284N_S_FARI	Faris	53.03724	28.44621	towns	canton	Qīr	قير	Qīr, Kīr	قير، كير	Qir, Kir	Qir, Kir
FARUQ_530E299N_S_FARI	Faris	53.06569	29.97467	towns	cite	Fārūq	فاروق	Fārūq	فاروق	Faruq	Faruq
KARZIN_531E284N_S_FARI	Faris	53.11293	28.40599	villages	localite	Kārzin	كارزن	Kārzin	كارزن	Karzin	Karzin
KARA_531E307N_S_FARI	Faris	53.12982	30.73791	towns	cite	Karaŧ	كرة	Karaŧ	كرة	Kara	Kara
SIMAKAN_531E286N_S_FARI	Faris	53.13182	28.69941	towns	cite	al-Ṣīmakān	ﭐلصيمكان	al-Ṣīmakān	ﭐلصيمكان	al-Simakan	al-Simakan
NAHRSAKKAN_531E285N_W_FARI	Faris	53.13563	28.52387	waters	riviere	Nahr Sakkān	نهر سكان	Nahr Sakkān	نهر سكان	Nahr Sakkan	Nahr Sakkan
KAMIN_531E301N_R_FARI	Faris	53.16106	30.17019	regions	district	Kamīn	كمين	Kamīn	كمين	Kamin	Kamin
KAMIN_531E301N_S_FARI	Faris	53.16106	30.17019	villages	bourgade	Kamīn	كمين	Kamīn	كمين	Kamin	Kamin
KALWADHAR_531E298N_S_FARI	Faris	53.16886	29.88067	waystations	etape	Kalwaḏār	كلوذار	Kalwaḏār, Qalwaḏar, Qaryaŧ al-Ḥammām	كلوذار، قلوذر، قرية ﭐلحمام	Kalwadhar, Qalwadhar, Qarya al-Hammam	Kalwadhar, Qalwadhar, Qarya al-Hammam
QARYABIDH_531E306N_S_FARI	Faris	53.18449	30.63942	villages	bourgade	Qaryaŧ Bīḏ	قرية بيذ	Qaryaŧ Bīḏ, Bīḏ, Qaryaŧ al-Ḫillāf	قرية بيذ، بيذ، قرية ﭐلخلاف	Qarya Bidh, Bidh, Qarya al-Khillaf	Qarya Bidh, Bidh, Qarya al-Khillaf
KAHAMANDA_531E302N_S_FARI	Faris	53.19750	30.28490	waystations	etape	Kahamandaŧ	كهمندة	Kahamandaŧ, Kihmand, Kamahank	كهمندة، كهمند، كمهنك	Kahamanda, Kihmand, Kamahank	Kahamanda, Kihmand, Kamahank
KHAWARISTAN_532E292N_S_FARI	Faris	53.20589	29.25713	towns	cite	Ḫawaristān	خورستان	Ḫawaristān, Sarwistān	خورستان، سروستان	Khawaristan, Sarwistan	Khawaristan, Sarwistan
ZIYADABADHZIYADAWADH_532E298N_S_FARI	Faris	53.22441	29.83708	waystations	etape	ZiyādābāḏZiyādāwāḏ	زياداباذزياداواذ	ZiyādābāḏZiyādāwāḏ	زياداباذزياداواذ	ZiyadabadhZiyadawadh	ZiyadabadhZiyadawadh
ABARQUH_532E311N_S_FARI	Faris	53.25737	31.15094	towns	cite	Abarqūh	أبرقوه	Abarqūh	أبرقوه	Abarquh	Abarquh
KHABR_532E287N_S_FARI	Faris	53.27732	28.76436	towns	cite	Ḫabr	خبر	Ḫabr	خبر	Khabr	Khabr
KHURRAMA_533E295N_S_FARI	Faris	53.33817	29.54292	towns	cite	Ḫurrāmaŧ	خرامة	Ḫurrāmaŧ	خرامة	Khurrama	Khurrama
BAHRFARIS_533E261N_W_FARI	Faris	53.38985	26.11223	waters	mer	Baḥr Fāris	بحر فارس	Baḥr Fāris	بحر فارس	Bahr Faris	Bahr Faris
BARAB_534E278N_S_FARI	Faris	53.43209	27.88081	waystations	etape	Bārāb	باراب	Bārāb	باراب	Barab	Barab
JUBANAN_534E297N_S_FARI	Faris	53.44398	29.79117	waystations	etape	Ǧūbānan	جوبانن	Ǧūbānan	جوبانن	Jubanan	Jubanan
RIBAT_534E291N_S_FARI	Faris	53.44663	29.12318	waystations	etape	al-Ribāṭ	ﭐلرباط	al-Ribāṭ	ﭐلرباط	al-Ribat	al-Ribat
BUHAYRABASHFUYA_534E296N_W_FARI	Faris	53.47044	29.69700	waters	lac	Buḥayraŧ al-Bāšfūyaŧ	بحيرة ﭐلباشفوية	Buḥayraŧ al-Bāšfūyaŧ,  Buḥayraŧ al-Bāšfūriyyaŧ	بحيرة ﭐلباشفوية،  بحيرة ﭐلباشفورية	Buhayra al-Bashfuya,  Buhayra al-Bashfuriyya	Buhayra al-Bashfuya,  Buhayra al-Bashfuriyya
JAHRAM_535E285N_S_FARI	Faris	53.51012	28.51826	towns	cite	Ǧahram	جهرم	Ǧahram	جهرم	Jahram	Jahram
KURM_536E290N_S_FARI	Faris	53.60800	29.07233	towns	cite	Kurm	كرم	Kurm	كرم	Kurm	Kurm
BAWWAN_536E304N_S_FARI	Faris	53.61920	30.46456	towns	cite	Bawwān	بوان	Bawwān	بوان	Bawwan	Bawwan
FASA_536E289N_S_FARI	Faris	53.63181	28.92193	towns	cite	Fasā	فسا	Fasā	فسا	Fasa	Fasa
UQDA_536E324N_S_FARI	Faris	53.66217	32.40568	towns	ville	ʿUqdaŧ	عقدة	ʿUqdaŧ	عقدة	Uqda	Uqda
KARYAN_537E280N_S_FARI	Faris	53.70323	28.05935	waystations	etape	Kāryān	كاريان	Kāryān	كاريان	Karyan	Karyan
KATH_537E293N_S_FARI	Faris	53.70323	29.36324	waystations	etape	Kaṯ	كث	Kaṯ	كث	Kath	Kath
ABADHA_537E297N_S_FARI	Faris	53.73617	29.78210	towns	cite	Ābāḏaŧ	آباذة	Ābāḏaŧ	آباذة	Abadha	Abadha
RASDUNYA_537E300N_S_FARI	Faris	53.78841	30.00577	waystations	etape	Raʾs al-Dunyā	رأس ﭐلدنيا	Raʾs al-Dunyā	رأس ﭐلدنيا	Ras al-Dunya	Ras al-Dunya
TABISTAN_538E289N_S_FARI	Faris	53.81699	28.94971	towns	cite	Ṭabistān	طبستان	Ṭabistān, Ṭamistān, Ṭimāristān	طبستان، طمستان، طمارستان	Tabistan, Tamistan, Timaristan	Tabistan, Tamistan, Timaristan
QARYAASAD_538E315N_S_FARI	Faris	53.84828	31.55774	waystations	etape	Qaryaŧ al-Asad	قرية ﭐلأسد	Qaryaŧ al-Asad	قرية ﭐلأسد	Qarya al-Asad	Qarya al-Asad
QARYAAS_539E296N_S_FARI	Faris	53.92036	29.69008	waystations	citadelle	Qaryaŧ al-Ās	قرية ﭐلآس	Qaryaŧ al-Ās	قرية ﭐلآس	Qarya al-As	Qarya al-As
KHAYAR_539E292N_S_FARI	Faris	53.93868	29.25944	villages	localite	Ḫayār	خيار	Ḫayār, Ḫayr, Ḫayraŧ	خيار، خير، خيرة	Khayar, Khayr, Khayra	Khayar, Khayr, Khayra
JUWAYMABUAHMAD_539E281N_S_FARI	Faris	53.94661	28.14336	villages	village	Ǧuwaym Abū Aḥmad	جويم أبو أحمد	Ǧuwaym Abū Aḥmad	جويم أبو أحمد	Juwaym Abu Ahmad	Juwaym Abu Ahmad
BUHAYRABAKHTIKAN_539E293N_W_FARI	Faris	53.97836	29.33096	waters	lac	Buḥayraŧ al-Baḫtikān	بحيرة ﭐلبختكان	Buḥayraŧ al-Baḫtikān	بحيرة ﭐلبختكان	Buhayra al-Bakhtikan	Buhayra al-Bakhtikan
MAYBUDH_539E322N_S_FARI	Faris	53.98932	32.27744	towns	cite	Maybuḏ	ميبذ	Maybuḏ	ميبذ	Maybudh	Maybudh
ISBAHANAT_540E291N_S_FARI	Faris	54.04351	29.10684	towns	ville	al-Iṣbahānāt	ﭐلإصبهانات	al-Iṣbahānāt, Iṣṭahbānān	ﭐلإصبهانات، إصطهبانان	al-Isbahanat, Istahbanan	al-Isbahanat, Istahbanan
FUSTUJAN_540E288N_S_FARI	Faris	54.07735	28.88371	towns	canton/cite	al-Fustuǧān	ﭐلفستجان	al-Fustuǧān, al-Fustukān, al-Bustaǧān	ﭐلفستجان، ﭐلفستكان، ﭐلبستجان	al-Fustujan, al-Fustukan, al-Bustajan	al-Fustujan, al-Fustukan, al-Bustajan
KHAWARISTAN_540E299N_S_FARI	Faris	54.09036	29.95166	waystations	etape	Ḫawaristān	خورستان	Ḫawaristān	خورستان	Khawaristan	Khawaristan
JAHZANDAYA_541E288N_S_FARI	Faris	54.18928	28.85635	towns	cite	Ǧāh Zandāyaŧ	جاه زنداية	Ǧāh Zandāyaŧ	جاه زنداية	Jah Zandaya	Jah Zandaya
KARB_542E282N_S_FARI	Faris	54.21531	28.26649	waystations	etape	Karb	كرب	Karb	كرب	Karb	Karb
IYJ_542E289N_S_FARI	Faris	54.24655	28.98623	towns	cite	Iyǧ	إيج	Iyǧ, Iyk	إيج، إيك	Iyj, Iyk	Iyj, Iyk
NAYRIZ_542E292N_S_FARI	Faris	54.27518	29.21368	capitals	cheflieu	Nayrīz	نيريز	Nayrīz	نيريز	Nayriz	Nayriz
NAYRIZ_542E292N_R_FARI	Faris	54.27518	29.21368	regions	territoire	Nayrīz	نيريز	Nayrīz	نيريز	Nayriz	Nayriz
DARAKAN_542E288N_S_FARI	Faris	54.27779	28.83127	waystations	etape	Dārakān	داركان	Dārakān	داركان	Darakan	Darakan
MADHAWAN_542E287N_S_FARI	Faris	54.29861	28.72175	towns	cite	al-Māḏawan	ﭐلماذون	al-Māḏawan	ﭐلماذون	al-Madhawan	al-Madhawan
SAHIH_543E297N_S_FARI	Faris	54.30902	29.77106	towns	cite?	Ṣahīh	صهيه	Ṣahīh, Ṣāhik	صهيه، صاهك	Sahih, Sahik	Sahih, Sahik
YAZD_543E319N_R_FARI	Faris	54.34286	31.90975	regions	territoire	Yazd	يزد	Yazd, Kaṯaŧ	يزد، كثة	Yazd, Katha	Yazd, Katha
YAZD_543E319N_S_FARI	Faris	54.34286	31.90975	towns	cite	Yazd	يزد	Yazd, Kaṯaŧ	يزد، كثة	Yazd, Katha	Yazd, Katha
MURAYZIJAN_543E288N_S_FARI	Faris	54.39753	28.80847	villages	localite	al-Murayziǧān	ﭐلمريزجان	al-Murayziǧān	ﭐلمريزجان	al-Murayzijan	al-Murayzijan
KHASU_544E285N_S_FARI	Faris	54.40794	28.51610	capitals	cheflieu	Ḫasū	خسو	Ḫasū	خسو	Khasu	Khasu
RUBANJ_544E285N_R_FARI	Faris	54.40794	28.51610	regions	territoire	Rūbanǧ	روبنج	Rūbanǧ	روبنج	Rubanj	Rubanj
HARA_544E301N_S_FARI	Faris	54.41315	30.11392	towns	cite	Harāŧ	هراة	Harāŧ	هراة	Hara	Hara
YAZDAKHAWAST_544E283N_S_FARI	Faris	54.43137	28.33754	towns	cite	Yazdaḫawāst	يزدخواست	Yazdaḫawāst	يزدخواست	Yazdakhawast	Yazdakhawast
DARABAJIRD_545E287N_S_FARI	Faris	54.54591	28.75143	capitals	capitale	Darābaǧird	درابجرد	Darābaǧird	درابجرد	Darabajird	Darabajird
FAHRAJ_546E317N_S_FARI	Faris	54.62400	31.76601	towns	cite	al-Fahraǧ	ﭐلفهرج	al-Fahraǧ	ﭐلفهرج	al-Fahraj	al-Fahraj
KADRUWA_546E291N_S_FARI	Faris	54.67346	29.16368	towns	cite	Kadruwā	كدروا	Kadruwā	كدروا	Kadruwa	Kadruwa
RADHAN_547E301N_S_FARI	Faris	54.70209	30.12067	waystations	etape	Rāḏān	راذان	Rāḏān, Dāḏān	راذان، داذان	Radhan, Dadhan	Radhan, Dadhan
SIFUMARA_547E267N_R_FARI	Faris	54.75943	26.77937	regions	region	Sīf ʿUmāraŧ	سيف عمارة	Sīf ʿUmāraŧ	سيف عمارة	Sif Umara	Sif Umara
JARMWA_547E286N_S_FARI	Faris	54.79060	28.60070	waystations	etape	Ǧarmwaŧ	جرموة	Ǧarmwaŧ	جرموة	Jarmwa	Jarmwa
ZARUDUWA_548E294N_S_FARI	Faris	54.85047	29.41342	waystations	etape	Zarūdūwaŧ	زرودووة	Zarūdūwaŧ	زرودووة	Zaruduwa	Zaruduwa
HISNIBNUMARA_549E265N_S_FARI	Faris	54.90122	26.57451	waystations	citadelle	Ḥiṣn Ibn ʿUmāraŧ	حصن إبن عمارة	Ḥiṣn Ibn ʿUmāraŧ, Qalʿaŧ Ibn ʿUmāraŧ	حصن إبن عمارة، قلعة إبن عمارة	Hisn Ibn Umara, Qala Ibn Umara	Hisn Ibn Umara, Qala Ibn Umara
SHABABAK_550E301N_S_FARI	Faris	55.05872	30.13418	towns	cite	Šābābak	شابابك	Šābābak, Šābāwak, Šahrbābāk	شابابك، شاباوك، شهرباباك	Shababak, Shabawak, Shahrbabak	Shababak, Shabawak, Shahrbabak
RUSTAQ_551E284N_S_FARI	Faris	55.10037	28.47950	towns	cite	Rustāq	رستاق	Rustāq	رستاق	Rustaq	Rustaq
FURJ_551E283N_S_FARI	Faris	55.16805	28.31921	towns	cite	Furǧ	فرج	Furǧ	فرج	Furj	Furj
ABAN_552E308N_S_FARI	Faris	55.25395	30.88547	towns	cite	Abān	أبان	Abān	أبان	Aban	Aban
DIHUSHTURAN_557E303N_S_FARI	Faris	55.70689	30.31412	towns	cite	Dih Ušturān	ده أشتران	Dih Ušturān, Qaryaŧ al-Ǧimāl	ده أشتران، قرية ﭐلجمال	Dih Ushturan, Qarya al-Jimal	Dih Ushturan, Qarya al-Jimal
JAZIRALAFT_558E267N_R_FARI	Faris	55.80019	26.74974	regions	ile	Ǧazīraŧ Laft	جزيرة لفت	Ǧazīraŧ Laft, Ǧazīraŧ Barkāwān, Ǧazīraŧ Banū Kāwān	جزيرة لفت، جزيرة بركاوان، جزيرة بنو كاوان	Jazira Laft, Jazira Barkawan, Jazira Banu Kawan	Jazira Laft, Jazira Barkawan, Jazira Banu Kawan
TARIM_558E281N_S_FARI	Faris	55.80841	28.18163	towns	cite	Tārim	تارم	Tārim, Tārum	تارم، تارم	Tarim, Tarum	Tarim, Tarum
UNAS_559E302N_S_FARI	Faris	55.98281	30.24893	towns	cite	Ūnas	أونس	Ūnas	أونس	Unas	Unas
RUDHAN_560E303N_R_FARI	Faris	56.02186	30.39947	regions	territoire	al-Rūḏān	ﭐلروذان	al-Rūḏān	ﭐلروذان	al-Rudhan	al-Rudhan
RUDHAN_560E303N_S_FARI	Faris	56.02186	30.39947	towns	cite	al-Rūḏān	ﭐلروذان	al-Rūḏān	ﭐلروذان	al-Rudhan	al-Rudhan
SURU_562E271N_S_FARI	Faris	56.21348	27.19067	towns	cite	Sūrū	سورو	Sūrū	سورو	Suru	Suru
RASKISHM_562E269N_S_FARI	Faris	56.28286	26.96505	towns	cite	Raʾs Kišm	رأس كشم	Raʾs Kišm	رأس كشم	Ras Kishm	Ras Kishm
NAWUSA_426E338N_S_IRAQ	Iraq	42.61179	33.82317	waystations	etape	al-Nāwusaŧ	ﭐلناوسة	al-Nāwusaŧ	ﭐلناوسة	al-Nawusa	al-Nawusa
HIT_428E336N_S_IRAQ	Iraq	42.80628	33.64370	towns	cite	Hīt	هيت	Hīt	هيت	Hit	Hit
RABB_432E334N_S_IRAQ	Iraq	43.26055	33.46273	villages	localite	al-Rabb	ﭐلرب	al-Rabb	ﭐلرب	al-Rabb	al-Rabb
SINN_434E352N_S_IRAQ	Iraq	43.46591	35.26076	towns	cite	al-Sinn	ﭐلسن	al-Sinn	ﭐلسن	al-Sinn	al-Sinn
AYNTAMR_435E326N_S_IRAQ	Iraq	43.52574	32.62337	towns	cite	ʿAyn al-Tamr	عين ﭐلتمر	ʿAyn al-Tamr	عين ﭐلتمر	Ayn al-Tamr	Ayn al-Tamr
BARIMMA_435E350N_S_IRAQ	Iraq	43.57361	35.07982	waystations	etape	Bārimmā	بارما	Bārimmā	بارما	Barimma	Barimma
SUDAQANIYYA_436E348N_S_IRAQ	Iraq	43.60292	34.81448	waystations	etape	al-Sūdaqāniyyaŧ	ﭐلسودقانية	al-Sūdaqāniyyaŧ	ﭐلسودقانية	al-Sudaqaniyya	al-Sudaqaniyya
TAKRIT_436E345N_S_IRAQ	Iraq	43.69617	34.59215	towns	cite	Takrīt	تكريت	Takrīt	تكريت	Takrit	Takrit
ANBAR_437E333N_S_IRAQ	Iraq	43.70150	33.39492	towns	cite	al-Anbār	ﭐلأنبار	al-Anbār	ﭐلأنبار	al-Anbar	al-Anbar
JABILTA_437E346N_S_IRAQ	Iraq	43.72814	34.62614	waystations	etape	Ǧabiltā	جبلتا	Ǧabiltā, Ǧabultā	جبلتا، جبلتا	Jabilta, Jabulta	Jabilta, Jabulta
DIMIMMA_437E333N_S_IRAQ	Iraq	43.78276	33.33483	towns	cite	Dimimmā	دمما	Dimimmā	دمما	Dimimma	Dimimma
DUR_438E344N_S_IRAQ	Iraq	43.80541	34.46814	towns	cite	al-Dūr	ﭐلدور	al-Dūr	ﭐلدور	al-Dur	al-Dur
KARKH_438E342N_S_IRAQ	Iraq	43.87468	34.29663	villages	localite	al-Karḫ	ﭐلكرخ	al-Karḫ	ﭐلكرخ	al-Karkh	al-Karkh
SAMARRA_438E342N_S_IRAQ	Iraq	43.88134	34.20964	capitals	capitale	Sāmarrāʾ	سامراء	Sāmarrāʾ	سامراء	Samarra	Samarra
JABALBARIMMA_438E349N_O_IRAQ	Iraq	43.88401	34.93688	sites	montagne	Ǧabal Bārimmā	جبل بارما	Ǧabal Bārimmā	جبل بارما	Jabal Barimma	Jabal Barimma
JABALBARIMMA_438E348N_O_IRAQ	Iraq	43.89840	34.80370	sites	mont	Ǧabal Bārimmā	جبل بارما	Ǧabal Bārimmā	جبل بارما	Jabal Barimma	Jabal Barimma
QADISIYYA_439E340N_S_IRAQ	Iraq	43.98259	34.09388	waystations	etape	al-Qādisiyyaŧ	ﭐلقادسية	al-Qādisiyyaŧ	ﭐلقادسية	al-Qadisiyya	al-Qadisiyya
KARBALA_440E326N_S_IRAQ	Iraq	44.03706	32.61792	towns	cite	Karbalāʾ	كربلاء	Karbalāʾ	كربلاء	Karbala	Karbala
SAYLAHIN_440E334N_S_IRAQ	Iraq	44.06385	33.41382	waystations	etape	al-Saylaḥīn	ﭐلسيلحين	al-Saylaḥīn	ﭐلسيلحين	al-Saylahin	al-Saylahin
ALTH_440E340N_S_IRAQ	Iraq	44.08916	34.02656	towns	cite	ʿAlṯ 	علث 	ʿAlṯ ,  al-ʿAlṯ	علث ،  ﭐلعلث	Alth ,  al-Alth	Alth ,  al-Alth
NAHRISA_441E332N_W_IRAQ	Iraq	44.13579	33.26692	waters	canal	Nahr ʿIsá	نهر عسى	Nahr ʿIsá	نهر عسى	Nahr Isa	Nahr Isa
NAHRSARSAR_441E331N_W_IRAQ	Iraq	44.14778	33.13984	waters	canal	Nahr Ṣarṣar	نهر صرصر	Nahr Ṣarṣar	نهر صرصر	Nahr Sarsar	Nahr Sarsar
AQARQUF_441E333N_R_IRAQ	Iraq	44.18108	33.34374	regions	tall	ʿAqarqūf	عقرقوف	ʿAqarqūf	عقرقوف	Aqarquf	Aqarquf
HARBA_441E339N_S_IRAQ	Iraq	44.18508	33.95808	towns	cite	Ḥarbá	حربى	Ḥarbá	حربى	Harba	Harba
QADISIYYA_441E316N_S_IRAQ	Iraq	44.18717	31.65292	towns	cite	al-Qādisiyyaŧ	ﭐلقادسية	al-Qādisiyyaŧ	ﭐلقادسية	al-Qadisiyya	al-Qadisiyya
